,구,URL_ID,카페명,평점,리뷰개수,주소,행정동,영업시간,전화번호,홈페이지주소,태그,메뉴,대표사진주소,경도,위도
0,종로구,1974266862,카페노티드 안국,3.2,166건,서울 종로구 북촌로 6-3 1층,종로구 가회동,영업시간&매일 10:00 ~ 21:00,0507-1337-9973,www.instagram.com/cafeknotted,#카페 ,"메뉴 이름: AMERICANO 가격: 4,000++메뉴 이름: CAFE LATTE 가격: 5,000",//t1.kakaocdn.net/thumb/T800x0.q80/?fname=http%3A%2F%2Ft1.daumcdn.net%2Fplace%2FD7A972771E814F5B8FA1A7A336D5FD40,126.9860088,37.57740915
1,종로구,353512935,블루보틀 삼청 카페,3.2,157건,서울 종로구 북촌로5길 76 1~3층,종로구 삼청동,영업시간&매일 10:00 ~ 20:00,02-6212-6998,www.bluebottlecoffeekorea.com,#카페 ,"메뉴 이름: 아메리카노 (AMERICANO) (hot/iced) 가격: 5,000++메뉴 이름: 라떼 (LATTE) (hot/iced) 가격: 6,100++메뉴 이름: 블렌드 (드립) 가격: 5,200++메뉴 이름: 놀라 플로트 (NOLA FLOAT) 가격: 7,200++메뉴 이름: 레몬 유자 피즈 (LEMON YUJU FIZZ) 가격: 4,500",//t1.kakaocdn.net/thumb/T800x0.q80/?fname=http%3A%2F%2Ft1.kakaocdn.net%2Fmystore%2F7910A6A9E4BD4B09AD29AEAA530E5D60,126.980863,37.58015151
2,종로구,853028118,어니언 안국점,3.3,160건,서울 종로구 계동길 5,종로구 가회동,"영업시간&월~금 07:00 ~ 22:00&토,일 09:00 ~ 22:00&휴무일&연중무휴",070-7543-2123,www.instagram.com/cafe.onion,#카페 #데이트코스 #한옥카페,"메뉴 이름: Americano 가격: 4,500++메뉴 이름: Cafe latte 가격: 5,000++메뉴 이름: Peppermint Tea 가격: 6,000++메뉴 이름: Chamomile Tea 가격: 6,000++메뉴 이름: White Tea 가격: 6,000",//t1.kakaocdn.net/thumb/T800x0.q80/?fname=http%3A%2F%2Ft1.daumcdn.net%2Fplace%2F87AF63653AA24505AF49A0631770F0C7,126.98649,37.57752049
3,종로구,1508329235,스태픽스,3.3,110건,서울 종로구 사직로9길 22 102호,종로구 사직동,영업시간&매일 10:00 ~ 21:00&휴무일&마지막 월요일,0507-1341-2055,www.instagram.com/staffpicks_official,#카페 #애견동반식당,"메뉴 이름: cake 가격: 6,900",//t1.kakaocdn.net/thumb/T800x0.q80/?fname=http%3A%2F%2Ft1.daumcdn.net%2Flocalfiy%2F1035344E134D4FF6B5F934DB7A7A99FD,126.9681371,37.57751133
4,종로구,7912367,산모퉁이,3.2,89건,서울 종로구 백석동길 153,종로구 부암동,"영업시간&월~금 11:00 ~ 19:00&토,일 11:00 ~ 21:00",02-391-4737,www.sanmotoonge.co.kr,#카페 #데이트코스 #제로페이,"메뉴 이름: 에스프레소 가격: 7,000++메뉴 이름: 아메리카노 가격: 7,000++메뉴 이름: 카페라떼 가격: 8,000++메뉴 이름: 카푸치노 가격: 8,000++메뉴 이름: 바닐라라떼 가격: 8,000++메뉴 이름: 카라멜 마끼아또 가격: 8,000++메뉴 이름: 발로나카페모카 가격: 8,000++메뉴 이름: 복숭아아이스티 가격: 8,000++메뉴 이름: 로얄밀크티 가격: 8,000++메뉴 이름: 수제유자차 가격: 8,000++메뉴 이름: 수제모과차 가격: 8,000++메뉴 이름: 리얼레몬차 가격: 8,000++메뉴 이름: 초코라떼 가격: 8,000++메뉴 이름: 레몬에이드 가격: 10,000++메뉴 이름: 캐모마일 가격: 8,000++메뉴 이름: 페퍼민트 가격: 8,000++메뉴 이름: 루이보스 가격: 8,000++메뉴 이름: 얼그레이 가격: 8,000++메뉴 이름: 오페라 케이크 가격: 7,000++메뉴 이름: 산딸기 케이크 가격: 7,000++메뉴 이름: 초코칩쿠키 가격: 7,000++메뉴 이름: 아몬드쿠키 가격: 7,000++메뉴 이름: 마들렌 가격: 7,000++메뉴 이름: 클라우드 가격: 9,000++메뉴 이름: 호가든 가격: 10,000++메뉴 이름: 하이네켄 가격: 10,000",//t1.kakaocdn.net/thumb/T800x0.q80/?fname=http%3A%2F%2Ft1.kakaocdn.net%2Ffiy_reboot%2Fplace%2FB3981B68685B4BD09C9774ADBED5C875,126.9679938,37.59545644
5,종로구,24725284,테라로사 광화문점,3.7,75건,서울 종로구 종로1길 50,종로구 종로1.2.3.4가동,"영업시간&월~금 07:30 ~ 22:00&토,일 08:00 ~ 22:00&매일 라스트오더 ~ 21:30&공휴일&08:00 ~ 22:00",,www.terarosa.com,#커피전문점 #로스팅전문 #핸드드립전문점,,//t1.kakaocdn.net/thumb/T800x0.q80/?fname=http%3A%2F%2Ft1.daumcdn.net%2Fplace%2FC14FFF2852554042BD6BBB245442C738,126.979615,37.57477174
6,종로구,1429224581,아키비스트,3.7,104건,서울 종로구 효자로13길 52,종로구 청운효자동,영업시간&매일 11:00 ~ 21:00&매일 라스트오더 ~ 20:30,,instagram.com/cafearchivist,#카페 ,"메뉴 이름: 아인슈페너 (ICE) 가격: 6,000++메뉴 이름: 크림라떼 (ICE) 가격: 6,000++메뉴 이름: 루이보스 슈프림 가격: 6,000++메뉴 이름: 아메리카노 가격: 5,000++메뉴 이름: 카페라떼 가격: 5,500++메뉴 이름: 자몽에이드 가격: 7,000",,126.9726785,37.58221762
7,종로구,27187492,포비 광화문점,4.1,130건,서울 종로구 종로3길 17 광화문D타워 1층 21호,종로구 종로1.2.3.4가동,"공휴일&10:00 ~ 22:30&영업시간&월~금 08:00 ~ 21:00&토,일 10:00 ~ 21:00",02-2251-8125,www.fourb.co.kr,#카페 #제로페이,"메뉴 이름: ESPRESSO 가격: 3,500++메뉴 이름: LONG BLACK 가격: 3,500++메뉴 이름: CAPPUCCINO 가격: 4,500++메뉴 이름: DRIP COFFEE 가격: 4,500++메뉴 이름: CHOCOLATE LATTE 가격: 4,500++메뉴 이름: PLAIN BAGEL 가격: 2,500",//t1.kakaocdn.net/thumb/T800x0.q80/?fname=http%3A%2F%2Ft1.daumcdn.net%2Fplace%2FC0F59E2D9BF34E3AAE4B6FD45190EB4E,126.9789144,37.57099652
8,종로구,8082652,차마시는 뜰,4.4,90건,서울 종로구 북촌로11나길 26 1층,종로구 삼청동,"영업시간&화~금 12:00 ~ 21:00&토,일 11:00 ~ 21:00&휴무일&월요일",02-722-7006,www.instagram.com/cha.teul,#전통찻집 #데이트코스,"메뉴 이름: 쌍화탕 가격: 9,000++메뉴 이름: 대추탕 가격: 9,000++메뉴 이름: 녹차 (특우전) 가격: 17,000++메뉴 이름: 발효차 가격: 17,000++메뉴 이름: 감잎차 가격: 11,000",//t1.kakaocdn.net/thumb/T800x0.q80/?fname=http%3A%2F%2Ft1.kakaocdn.net%2Ffiy_reboot%2Fplace%2FAE0D37F7E91E4CA2BAD49F0EED7E75AF,126.9822645,37.58220255
9,종로구,1154772851,프릳츠 원서점,3.2,102건,서울 종로구 율곡로 83,종로구 가회동,영업시간&매일 10:00 ~ 21:00&휴무일&명절,02-747-8101,fritz.co.kr,#카페 #데이트코스 #빈티지분위기 #카카오페이 #제로페이,"메뉴 이름: 산딸기 크루아상 가격: 4,100++메뉴 이름: 에스프레소 가격: 4,400++메뉴 이름: 아메리카노 가격: 4,600++메뉴 이름: 카페라떼 가격: 5,000++메뉴 이름: 카푸치노 가격: 5,000++메뉴 이름: 브리오슈 가격: 4,100++메뉴 이름: 빵오누텔라 가격: 4,600",//t1.kakaocdn.net/thumb/T800x0.q80/?fname=http%3A%2F%2Ft1.kakaocdn.net%2Ffiy_reboot%2Fplace%2FF02C16E8C0DE4407B34B4E9307827615,126.9884165,37.57776212
10,종로구,826692169,레이어드,3,199건,서울 종로구 북촌로2길 2-3,종로구 가회동,"영업시간&월~금 08:00 ~ 22:00&토,일 10:00 ~ 22:00",,,#카페 #데이트코스,"메뉴 이름: 아메리카노 가격: 4,500++메뉴 이름: 라떼 가격: 5,000++메뉴 이름: 에스프레스 가격: 4,500++메뉴 이름: 얼그레이 밀크티 가격: 6,000++메뉴 이름: 얼그레이 애물티 가격: 6,000",//t1.kakaocdn.net/thumb/T800x0.q80/?fname=http%3A%2F%2Ft1.daumcdn.net%2Flocalfiy%2FA59B7E7426DF4433A571D6307797EB38,126.985928,37.57773554
11,종로구,8143287,학림다방,4.1,90건,서울 종로구 대학로 119 2층,종로구 혜화동,"영업시간&월~금 10:00 ~ 22:50&토,일 10:00 ~ 22:00",02-742-2877,www.hakrim.pe.kr,#카페 #핸드드립전문점,"메뉴 이름: 아메리카노 가격: 5,000++메뉴 이름: 레귤러 가격: 5,000++메뉴 이름: 에스프레소 더블 가격: 5,000++메뉴 이름: 카페라떼 가격: 5,000++메뉴 이름: 잎녹차 가격: 6,000++메뉴 이름: 레몬에이드 가격: 6,000++메뉴 이름: 블루베리 크림치즈 케이크 가격: 6,000",,127.0016696,37.58191768
12,종로구,11016313,나무사이로,3.9,94건,서울 종로구 사직로8길 21 1층,종로구 사직동,영업시간&매일 11:00 ~ 20:00&공휴일&11:00 ~ 20:00&이용시 주의 사항&마지막 주문 19:00 / 홀이용은 19:30까지 / 원두구매는 20:00까지,070-7590-0885,www.namusairo.com,#커피전문점 #로스팅전문 #한옥스타일 #핸드드립전문점 #제로페이,"메뉴 이름: 에스프레소/아메리카노 가격: 5,000++메뉴 이름: 라떼 가격: 6,000",//t1.kakaocdn.net/thumb/T800x0.q80/?fname=http%3A%2F%2Ft1.daumcdn.net%2Fplace%2FD51ED00C8EE649CF90383134BA11613A,126.9709603,37.57464873
13,종로구,890843625,개뿔,4.1,62건,"서울 종로구 낙산성곽서1길 26 1,2층",종로구 이화동,영업시간&매일 10:00 ~ 22:00,02-765-2019,,#갤러리카페 #데이트코스 #루프탑있는 #제로페이,"메뉴 이름: 아메리카노 가격: 5,000++메뉴 이름: 카페 라떼 가격: 5,500++메뉴 이름: 캐모마일 티 가격: 6,000++메뉴 이름: 밀크티 가격: 7,000++메뉴 이름: 핫초코 가격: 6,000&",//t1.kakaocdn.net/thumb/T800x0.q80/?fname=http%3A%2F%2Ft1.daumcdn.net%2Fplace%2F74DC023E8D9A4652871B72709A40B563,127.008048,37.57817907
14,종로구,281666038,포비브라이트 광화문점,4.2,34건,서울 종로구 새문안로 76,종로구 사직동,"영업시간&월~금 07:30 ~ 21:00&토,일 10:00 ~ 20:00&월~금 라스트오더 ~ 20:20&토,일 라스트오더 ~ 19:20",02-6744-0120,fourb.co.kr,#카페 #제로페이,"메뉴 이름: FLAT WHITE 9oz LATTE 가격: 3,800++메뉴 이름: FLAT WHITE 5oz 가격: 3,800++메뉴 이름: PICCOLO 가격: 3,800++메뉴 이름: LONG BLACK 가격: 3,800++메뉴 이름: LEMON TEA 가격: 5,000",//t1.kakaocdn.net/thumb/T800x0.q80/?fname=http%3A%2F%2Ft1.daumcdn.net%2Fplace%2FFE4E8EAE151D43E0AB359877AB46888B,126.9731773,37.56979823
15,종로구,78911659,청수당,3.7,109건,서울 종로구 돈화문로11나길 31-9,종로구 종로1.2.3.4가동,영업시간&매일 11:30 ~ 22:00&매일 라스트오더 ~ 21:30,0507-1318-8215,instagram.com/cheongsudang_,#카페 #분위기좋은 #핸드드립전문점,"메뉴 이름: 스톤 드립 커피 가격: 5,800++메뉴 이름: 스톤 드립 우유 커피 가격: 6,300++메뉴 이름: 말차 우유(S) 가격: 7,000++메뉴 이름: 핸드 드립 홍차 가격: 7,500++메뉴 이름: 오리지날 수플레 카스텔라(600g) 가격: 15,000",//t1.kakaocdn.net/thumb/T800x0.q80/?fname=http%3A%2F%2Ft1.daumcdn.net%2Fplace%2F13DCED9BFFEB473499EBB6217BC32C02,126.9898212,37.57397462
16,종로구,2084457534,하이웨이스트 익선점,3.3,53건,서울 종로구 돈화문로11다길 18,종로구 종로1.2.3.4가동,영업시간&매일 11:00 ~ 22:00,,instagram.com/cafe_highwaist,#카페 ,"메뉴 이름: 아메리카노 가격: 6,000++메뉴 이름: 카페라떼 가격: 6,500++메뉴 이름: 에스프레소 가격: 5,500++메뉴 이름: 크림 라떼 가격: 7,500++메뉴 이름: 스카치 라떼 가격: 7,500",//t1.kakaocdn.net/thumb/T800x0.q80/?fname=http%3A%2F%2Ft1.kakaocdn.net%2Ffiy_reboot%2Fplace%2F37A4D07179F041179B6244E085E8F6F3,126.9907483,37.57315957
17,종로구,967168196,H라운지,2.8,17건,서울 종로구 자하문로4길 21-9,종로구 사직동,영업시간&화~일 10:30 ~ 22:00&휴무일&월요일,02-722-0028,www.instagram.com/seochon_hlounge,#카페 #데이트코스 #브런치카페 #회식장소,"메뉴 이름: 찹스테이크 가격: 25,000++메뉴 이름: 카프레제샌드위치 가격: 10,900++메뉴 이름: 스파이시치킨샌드위치 가격: 10,900++메뉴 이름: 연어샌드위치 가격: 11,900++메뉴 이름: 고르곤졸라피자 가격: 16,000",//t1.kakaocdn.net/thumb/T800x0.q80/?fname=http%3A%2F%2Ft1.daumcdn.net%2Fplace%2FFE4962D5D41E440F88C948630F8D9960,126.9734827,37.57788799
18,종로구,212413668,내자상회,4,68건,서울 종로구 사직로10길 3 1층,종로구 사직동,영업시간&매일 10:00 ~ 22:00,070-7755-0142,smartstore.naver.com/naejaandco,#카페 #핸드드립전문점,"메뉴 이름: 까페라떼 가격: 5,000++메뉴 이름: 단풍라떼 가격: 6,500++메뉴 이름: 꿀자몽주스 가격: 6,500",//t1.kakaocdn.net/thumb/T800x0.q80/?fname=http%3A%2F%2Ft1.daumcdn.net%2Fplace%2FEC4D89C2A70C471AB6C297A86FA09D55,126.9704902,37.57577222
19,종로구,17382138,라카페갤러리,4.6,30건,서울 종로구 자하문로10길 28 1층,종로구 사직동,영업시간&화~일 11:00 ~ 22:00&휴무일&월요일,02-379-1975,www.racafe.kr,#갤러리카페 #갤러리카페 #제로페이,"메뉴 이름: 샌드위치 가격: 8,500++메뉴 이름: 아메리카노 가격: 4,500++메뉴 이름: 아메리카노ICE 가격: 5,500++메뉴 이름: 에스프레소 가격: 4,000++메뉴 이름: 카페라떼 가격: 5,000++메뉴 이름: 카페모카 가격: 6,000++메뉴 이름: 카푸치노 가격: 5,000++메뉴 이름: 핫초코 가격: 6,000++메뉴 이름: 계절담근차(시즌티) 가격: 6,500++메뉴 이름: 아이스초코 가격: 7,000++메뉴 이름: 카페라떼ICE 가격: 6,000++메뉴 이름: 바닐라라떼 가격: 5,500++메뉴 이름: 바닐라라떼ICE 가격: 6,500++메뉴 이름: 카페모카ICE 가격: 7,000++메뉴 이름: 에스프레소 도피오 가격: 5,000++메뉴 이름: 에스프레소 꼰파냐 가격: 5,000++메뉴 이름: 캐모마일 가격: 6,000++메뉴 이름: 페퍼민트 가격: 6,000++메뉴 이름: 로즈마리 가격: 6,000++메뉴 이름: 레몬밤&버베나 가격: 6,000++메뉴 이름: 앉은뱅이쿠키 가격: 1,500++메뉴 이름: 호밀쿠키 가격: 1,500++메뉴 이름: 쑥쿠키 가격: 1,500",//t1.kakaocdn.net/thumb/T800x0.q80/?fname=http%3A%2F%2Ft1.daumcdn.net%2Flocalfiy%2F13AAA657AE604EE5A9E84E043961F0FB,126.9730297,37.57929658
20,종로구,1612751528,카페아르크,3.3,42건,서울 종로구 인왕산로 3 위쿡 1층,종로구 사직동,영업시간&매일 09:30 ~ 20:00,070-5220-1771,www.instagram.com/bakerycafe.arc,#카페 #루프탑있는 #베이커리카페,"메뉴 이름: 아메리카노 가격: 4,500++메뉴 이름: 라떼 가격: 5,000++메뉴 이름: 리얼쇼콜라 가격: 6,000++메뉴 이름: 청포도에이드 가격: 6,500++메뉴 이름: 라벤다허브티 가격: 6,000",//t1.kakaocdn.net/thumb/T800x0.q80/?fname=http%3A%2F%2Ft1.daumcdn.net%2Flocalfiy%2FEE813656E89B48A08FB65218B6A1A6E7,126.9671724,37.57482098
21,종로구,20459372,부빙,4,68건,서울 종로구 창의문로 136,종로구 부암동,"영업시간&재료소진시 조기마감&수~금 13:00 ~ 20:00&토,일 13:00 ~ 21:00&수~금 라스트오더1 ~ 19:30&토,일 라스트오더2 ~ 20:30&휴무일&월,화요일",02-394-8288,www.instagram.com/ice_boobing,#카페 ,"메뉴 이름: 팥빙수 (1인) 가격: 8,000++메뉴 이름: 딸기빙수 (1인) 가격: 10,000++메뉴 이름: 카라멜빙수 (1인) 가격: 8,000++메뉴 이름: 밀크티빙수 (1인) 가격: 9,000++메뉴 이름: 말차빙수 (1인) 가격: 10,000",//t1.kakaocdn.net/thumb/T800x0.q80/?fname=http%3A%2F%2Ft1.daumcdn.net%2Fplace%2F76E9D3BD69CE43978B225D7823E57A74,126.9653923,37.592743
22,종로구,1882706147,인왕산 대충유원지,3.8,76건,서울 종로구 필운대로 46 무목적빌딩 4층,종로구 청운효자동,"공휴일&13:00 ~ 23:00&영업시간&월~목 12:00 ~ 22:00&토,일 13:00 ~ 23:00&금 12:00 ~ 23:00",,www.instagram.com/daechungpark_inwangsan,#카페 ,"메뉴 이름: 카페 라떼 가격: 7,000++메뉴 이름: 거봉 녹차 가격: 7,000++메뉴 이름: 밀크 우롱차 가격: 7,000++메뉴 이름: 버터 곶감 말이 가격: 8,000++메뉴 이름: 필터커피 가격: 7,000",//t1.kakaocdn.net/thumb/T800x0.q80/?fname=http%3A%2F%2Ft1.daumcdn.net%2Fplace%2F69BAE85BF7D247C4B16DD79B7B2CFB10,126.9688188,37.58008891
23,종로구,630916358,동백양과점 익선점,2.1,83건,서울 종로구 수표로28길 17-24,종로구 종로1.2.3.4가동,영업시간&매일 12:00 ~ 22:00,02-3144-0429,www.instagram.com/dongbaek_official,#커피전문점 #데이트코스,"메뉴 이름: 익선 1937 가격: 7,500++메뉴 이름: 동백아가씨 가격: 8,000++메뉴 이름: 드립라떼 가격: 8,500++메뉴 이름: 오렌지크림커피 가격: 8,500++메뉴 이름: 카르페디엠 가격: 8,000",//t1.kakaocdn.net/thumb/T800x0.q80/?fname=http%3A%2F%2Ft1.kakaocdn.net%2Ffiy_reboot%2Fplace%2F8FC613CD61D84C65B50698A97415CB7A,126.9896049,37.57341602
24,종로구,468528939,카페키이로,4,45건,서울 종로구 창경궁로26길 41-3 2층,종로구 혜화동,"영업시간&목~일 12:00 ~ 20:00&목~일 라스트오더 ~ 19:30&휴무일&월,화,수요일",,www.instagram.com/ki___iro,#커피전문점 #제로페이,"메뉴 이름: 초코테린느 가격: 6,000++메뉴 이름: 말차테린느 가격: 6,000++메뉴 이름: 버터토스트 가격: 6,000++메뉴 이름: 아메리카노 hot 가격: 4,500++메뉴 이름: 아메리카노 ice 가격: 5,000",//t1.kakaocdn.net/thumb/T800x0.q80/?fname=http%3A%2F%2Ft1.daumcdn.net%2Fplace%2F1415D23C8952476B928440DE14087E86,126.999745,37.58211911
25,종로구,594338477,가배도 삼청점,3.2,31건,서울 종로구 북촌로5길 56-8 101호,종로구 삼청동,영업시간&매일 10:00 ~ 21:00,02-732-4542,www.instagram.com/gbdcoffee,#다방 #앤틱한 #제로페이,"메뉴 이름: 티라미수 가격: 7,000++메뉴 이름: 티 가격: 7,000++메뉴 이름: 판나코타 가격: 5,000++메뉴 이름: 가배 가격: 4,500++메뉴 이름: 말차라떼 가격: 6,500",//t1.kakaocdn.net/thumb/T800x0.q80/?fname=http%3A%2F%2Ft1.daumcdn.net%2Fplace%2F9974CB2B076B4B49BE5C2B0385DE837E,126.9821786,37.57989256
26,종로구,10405822,반쥴,4.2,51건,서울 종로구 삼일대로17길 23 3층,종로구 종로1.2.3.4가동,영업시간&월~토 11:30 ~ 22:30&일 11:30 ~ 21:30,02-735-5437,www.banjul.co.kr,#커피전문점 #데이트코스 #루프탑있는 #빈티지분위기 #앤틱한 #제로페이,"메뉴 이름: 아메리카노 가격: 4,800++메뉴 이름: 카페라떼 가격: 5,200++메뉴 이름: 로얄밀크티 가격: 6,000++메뉴 이름: 다즐링 가격: 7,000++메뉴 이름: 레몬트리 가격: 7,000++메뉴 이름: 우롱차 가격: 7,000",,126.9861864,37.56907139
27,종로구,8105618,커피스트,4.2,83건,서울 종로구 경희궁길 39 1층,종로구 사직동,영업시간&월~토 11:00 ~ 21:00&일 12:00 ~ 18:00,02-725-5557,coffeest.com,#커피전문점 #로스팅전문 #핸드드립전문점 #제로페이,"메뉴 이름: 핸드드립 가격: 6,000",,126.9694213,37.57279073
28,종로구,517442171,결,4.3,53건,서울 종로구 우정국로 26 센트로폴리스 1층,종로구 종로1.2.3.4가동,"영업시간&월~금 07:30 ~ 20:30&토,일 10:00 ~ 21:00",02-6370-5840,www.beanbrothers.co.kr,#카페 #핸드드립전문점,"메뉴 이름: 필터커피 가격: 4,500++메뉴 이름: 에스프레소 가격: 5,000++메뉴 이름: 아메리카노 가격: 5,000++메뉴 이름: 라떼 가격: 5,500++메뉴 이름: 허브티 가격: 6,000++메뉴 이름: 롱블랙 가격: 5,000++메뉴 이름: 플랫화이트 가격: 5,500++메뉴 이름: 오틀리 라떼 가격: 6,000++메뉴 이름: 오틀리 바닐라 라떼 가격: 6,500++메뉴 이름: 사과주스 가격: 5,500++메뉴 이름: 스콘 가격: 3,800",//t1.kakaocdn.net/thumb/T800x0.q80/?fname=http%3A%2F%2Ft1.daumcdn.net%2Fplace%2FCF08CA30500C4E00A9CB781636B62C1C,126.9836593,37.57149617
29,종로구,8106121,카페뎀셀브즈 종로점,3.1,63건,서울 종로구 삼일대로 388 1~3층,종로구 종로1.2.3.4가동,영업시간&매일 10:00 ~ 23:00&매일 라스트오더 ~ 22:30,02-2266-5947,smartstore.naver.com/themselves,#카페 #로스팅전문,"메뉴 이름: 카페 아메리카노 가격: 4,000++메뉴 이름: 카페라떼 가격: 4,700++메뉴 이름: 케냐 무티투 피베리 TOP 가격: 6,000++메뉴 이름: 에티오피아 예가체프 워르카 사카로 가격: 6,000++메뉴 이름: 콜드브루 아이스 카페라떼 가격: 6,000",,126.9880023,37.56919754
30,종로구,320882660,도트블랭킷,4.1,66건,서울 종로구 윤보선길 22 1층,종로구 삼청동,영업시간&월~토 10:00 ~ 21:00&일 10:00 ~ 17:00,0507-1431-2226,,#카페 #감성카페 #브런치카페 #제로페이,"메뉴 이름: 아메리카노 가격: 4,000++메뉴 이름: 카페 라떼 가격: 4,500++메뉴 이름: 오키나와 흑당 라떼 가격: 5,500++메뉴 이름: 얼그레이 아인슈페너 가격: 6,000++메뉴 이름: 페퍼민트 루이보스 밀크티 가격: 5,500",,126.9840968,37.57702567
31,종로구,15815825,mk2,3.3,55건,서울 종로구 자하문로10길 17,종로구 청운효자동,영업시간&매일 12:00 ~ 22:00,,instagram.com/cafemk2,#카페 #데이트코스,"메뉴 이름: 에스프레소 가격: 4,000++메뉴 이름: 아메리카노(hot) 가격: 5,000++메뉴 이름: 카페 라떼(hot) 가격: 6,000++메뉴 이름: 레몬티(hot) 가격: 7,000++메뉴 이름: 얼그레이 밀크티(hot) 가격: 7,000",,126.9725277,37.57952418
32,종로구,1711700322,밀크홀1937 종로점,3.7,51건,서울 종로구 종로 86-1 1~5층,종로구 종로1.2.3.4가동,"영업시간&월~금 07:30 ~ 23:00&토,일 08:30 ~ 23:00",070-8801-1937,www.instagram.com/milkhall1937,#카페 #디저트카페 #루프탑있는 #카카오페이 #제로페이,"메뉴 이름: 아메리카노 가격: 4,300++메뉴 이름: 카페라떼 가격: 4,800++메뉴 이름: 쑥우유 가격: 5,200++메뉴 이름: 생카라멜라떼 가격: 5,800++메뉴 이름: 오리지널밀크티 가격: 5,800",//t1.kakaocdn.net/thumb/T800x0.q80/?fname=http%3A%2F%2Ft1.daumcdn.net%2Flocalfiy%2F4E29FFFB2D574D6DBE731178364E3D05,126.9870912,37.56995522
33,종로구,1182434312,제이히든하우스,3.2,20건,서울 종로구 종로 269-4 1층,종로구 종로5.6가동,영업시간&월~토 11:00 ~ 19:00&휴무일&일요일,02-744-1915,www.instagram.com/j.hiddenhouse,#카페 #한옥스타일 #제로페이,"메뉴 이름: J.에스프레소 (HOT) 가격: 5,000++메뉴 이름: J.아메리카노 가격: 5,500++메뉴 이름: J.프리미엄 아메리카노 가격: 6,000++메뉴 이름: J.카페라떼 가격: 6,000++메뉴 이름: J.버터플라이피 아이스티 가격: 7,500",,127.0079657,37.57142538
34,종로구,9544927,클럽에스프레소,3.2,68건,서울 종로구 창의문로 132,종로구 부암동,영업시간&매일 09:00 ~ 22:00&휴무일&설당일&추석당일,02-764-8719,www.clubespresso.co.kr,#커피전문점 #로스팅전문 #핸드드립전문점,"메뉴 이름: 클럽블렌드 가격: 5,000++메뉴 이름: 콜롬비아 수프리모 가격: 5,000++메뉴 이름: 라떼 가격: 6,000++메뉴 이름: 플랫화이트 가격: 6,000++메뉴 이름: 아포가토 (ICE) 가격: 7,000",,126.9659753,37.59268362
35,종로구,27278291,슬로우파크,4.1,15건,서울 종로구 삼청로 141,종로구 삼청동,영업시간&매일 10:00 ~ 22:00&매일 라스트오더 ~ 21:00&휴무일&연중무휴,02-739-8797,,#카페 #데이트코스 #분위기좋은 #브런치카페 #피맥 #제로페이,"메뉴 이름: 에스프레소 가격: 4,000++메뉴 이름: 아메리카노 가격: 4,000++메뉴 이름: 카페라떼 가격: 5,000++메뉴 이름: 바닐라라떼 가격: 5,500++메뉴 이름: 카라멜라떼 가격: 5,500",//t1.kakaocdn.net/thumb/T800x0.q80/?fname=http%3A%2F%2Ft1.daumcdn.net%2Fplace%2F3C79EB2548FF4F3880158A7FCE9E199E,126.9814993,37.58791371
36,종로구,8045991,카페이마,3.3,53건,서울 종로구 세종대로 152 일민미술관 1층,종로구 종로1.2.3.4가동,영업시간&매일 10:00 ~ 19:00,02-2020-2088,,#카페 ,"메뉴 이름: 아메리카노 가격: 4,800++메뉴 이름: 카페라테 가격: 5,500++메뉴 이름: 홍차 가격: 4,800++메뉴 이름: 오렌지주스 가격: 7,500++메뉴 이름: 클래식함박스테이크 가격: 13,500",,126.9776582,37.56986879
37,종로구,971978748,로코랩,4.3,31건,서울 종로구 율곡로4길 51,종로구 종로1.2.3.4가동,영업시간&월~금 08:30 ~ 21:30&토 11:00 ~ 21:00&휴무일&일요일,02-3210-3258,www.instagram.com/locolab_,#카페 #데이트코스 #디저트카페 #루프탑있는 #분위기좋은 #빈티지분위기 #제로페이,"메뉴 이름: 클래식 아인슈패너 가격: 4,300++메뉴 이름: 코코넛 크림 라떼 가격: 4,500++메뉴 이름: 일이공큐브라떼 가격: 4,500++메뉴 이름: 런던밀크티 가격: 5,000++메뉴 이름: 인생의 참 맛 자몽 에이드 가격: 6,000++메뉴 이름: 아메리카노 (S) 가격: 3,000++메뉴 이름: 카페라떼 (S) 가격: 4,000",//t1.kakaocdn.net/thumb/T800x0.q80/?fname=http%3A%2F%2Ft1.daumcdn.net%2Fplace%2F5E2ED2B2F21E4B0F8823EF2859B3A191,126.9813597,37.57335187
38,종로구,1791652938,더마틴,3.9,93건,서울 종로구 자하문로 54-1,종로구 청운효자동,"영업시간&수~금 11:00 ~ 20:00&토,일 12:30 ~ 20:00&휴무일&월,화요일",02-738-2299,www.instagram.com/the__martin__,#디저트카페 #비건푸드 #제로페이,"메뉴 이름: 1컵 가격: 7,000++메뉴 이름: 크로아상 가격: 4,500++메뉴 이름: 하몽크로와상 가격: 16,000++메뉴 이름: 아메리카노 가격: 5,000++메뉴 이름: 플랫화이트 가격: 6,000++메뉴 이름: 타히티 바닐라라떼 가격: 7,000++메뉴 이름: 마틴s 아포카토 가격: 9,000++메뉴 이름: 인왕산라떼 가격: 8,000",,126.9715003,37.58096173
39,종로구,977211586,펠트커피 광화문점,3.6,51건,서울 종로구 종로3길 17 b2층,종로구 종로1.2.3.4가동,"영업시간&월~금 07:00 ~ 20:00&토,일 11:00 ~ 19:00&토,일 라스트오더 ~ 19:00&공휴일&11:00 ~ 19:00&라스트오더 ~ 19:00",02-2251-8010,feltcoffee.com,#카페 ,"메뉴 이름: Espresso 가격: 4,000++메뉴 이름: Americano 가격: 4,000++메뉴 이름: Latte 가격: 4,500++메뉴 이름: Vanilla Latte 가격: 4,500++메뉴 이름: Quick Brewed Coffee 가격: 4,000",//t1.kakaocdn.net/thumb/T800x0.q80/?fname=http%3A%2F%2Ft1.daumcdn.net%2Fplace%2F4A659F3310954343A5EAE7630EBDFA38,126.9789144,37.57099652
40,종로구,1154343797,한옥찻집,4.4,48건,서울 종로구 인사동12길 9,종로구 종로1.2.3.4가동,,,instagram.com/hanok.cafe_insadong,#전통찻집 #제로페이,"메뉴 이름: 아메리카노 가격: 6,000++메뉴 이름: 카페라떼 가격: 6,500++메뉴 이름: 카푸치노 가격: 6,500++메뉴 이름: 오곡쉐이크 가격: 8,000++메뉴 이름: 딸기스무디 가격: 8,000",//t1.kakaocdn.net/thumb/T800x0.q80/?fname=http%3A%2F%2Ft1.daumcdn.net%2Flocalfiy%2F017C521F2B394A359B2E8AF32D2AB5E2,126.9864514,37.5731752
41,종로구,1041123432,애즈라이크,4.1,53건,서울 종로구 효자로7길 23 1층,종로구 사직동,"영업시간&매일 10:00 ~ 20:00&토,일 브레이크타임 15:00 ~ 16:30",02-722-9994,www.instagram.com/aslike_,#카페 #데이트코스 #브런치카페 #점심식사 #제로페이,"메뉴 이름: 아메리카노 가격: 4,300++메뉴 이름: 카페라떼 가격: 4,800++메뉴 이름: 얼그레이 티 가격: 5,500++메뉴 이름: 페퍼민트 가격: 5,500++메뉴 이름: 리코타베이컨샌드위치 가격: 12,500",//t1.kakaocdn.net/thumb/T800x0.q80/?fname=http%3A%2F%2Ft1.daumcdn.net%2Flocalfiy%2FF6A53AB8A09946B08EE42C36B0C7955B,126.9733152,37.57845843
42,종로구,855621421,호텔세느장,2.2,63건,서울 종로구 돈화문로11길 28-5,종로구 종로1.2.3.4가동,영업시간&매일 12:00 ~ 24:00,02-766-8211,www.instagram.com/cafe_seinejang,#디저트카페 #데이트코스 #루프탑있는 #빈티지분위기,"메뉴 이름: 아메리카노 가격: 4,800++메뉴 이름: 카페라떼 가격: 5,300++메뉴 이름: 카푸치노 가격: 5,300++메뉴 이름: 레몬에이드 가격: 6,800++메뉴 이름: 체리 요거트 스무디 가격: 7,300++메뉴 이름: 마시멜론 발로나 초코 가격: 6,800++메뉴 이름: 로열 밀크티 가격: 6,800",,126.9898079,37.57280732
43,종로구,1870696527,와이엔,3.9,39건,서울 종로구 윤보선길 71 1층,종로구 삼청동,영업시간&매일 11:00 ~ 21:00,02-735-6701,www.studiounravel.com/yyyyynnn,#카페 #제로페이,"메뉴 이름: AMERICANO 가격: 5,000++메뉴 이름: CAFE LATTE 가격: 5,500++메뉴 이름: FLAT WHITE 가격: 5,500++메뉴 이름: VANILLA LATTE 가격: 6,000++메뉴 이름: BLACK EINSPANNER 가격: 6,000++메뉴 이름: WHITE EINSPANNER 가격: 6,000++메뉴 이름: SPARKLING TEA 가격: 6,000++메뉴 이름: POOL 가격: 7,000++메뉴 이름: HOJI TEA 가격: 6,000++메뉴 이름: BLUEBERRY LYCHEE FRUIT TEA 가격: 6,000++메뉴 이름: SALTED CHOCOLATE 가격: 7,000++메뉴 이름: BEER-UNFILTERED 가격: 8,000++메뉴 이름: BEER-FRIDAY 가격: 8,500",//t1.kakaocdn.net/thumb/T800x0.q80/?fname=http%3A%2F%2Ft1.daumcdn.net%2Flocalfiy%2F42BF52569E2C49449E51D7195CA5887D,126.9832948,37.57918422
44,종로구,91934669,끼룩하우스,3.2,29건,서울 종로구 돈화문로11나길 26-4,종로구 종로1.2.3.4가동,영업시간&목~일 12:00 ~ 21:00&월~수 12:00 ~ 20:00,02-747-2626,www.instagram.com/kkilook.house,#카페 #건강음료 #디저트카페 #루프탑있는 #베이커리카페 #제로페이,"메뉴 이름: 아메리카노 가격: 5,300++메뉴 이름: 카페라떼 가격: 6,300++메뉴 이름: 아인슈페너 (ICE) 가격: 7,300++메뉴 이름: 끼룩에이드(레몬) 가격: 7,800++메뉴 이름: 애플스트러들 가격: 9,500++메뉴 이름: 프랄린스트러들 가격: 9,500",//t1.kakaocdn.net/thumb/T800x0.q80/?fname=http%3A%2F%2Ft1.daumcdn.net%2Flocalfiy%2F87ABB3D3C5984B1D93182177AEE70C7C,126.9905253,37.57388085
45,종로구,85503217,통인스윗,3.8,85건,서울 종로구 자하문로7길 50,종로구 청운효자동,영업시간&매일 11:00 ~ 21:00,02-6085-3777,www.instagram.com/tonginsweet,#디저트카페 #데이트코스 #제로페이,"메뉴 이름: 에그타르트 가격: 3,000++메뉴 이름: 호두타르트 가격: 3,500++메뉴 이름: 쵸코타르트 가격: 4,500++메뉴 이름: 아메리카노 가격: 4,000++메뉴 이름: 레몬티 (HOT) 가격: 4,000",//t1.kakaocdn.net/thumb/T800x0.q80/?fname=http%3A%2F%2Ft1.daumcdn.net%2Fplace%2FCE0811A9950342CCBF5BE26A0C6D5973,126.9696416,37.57964978
46,종로구,543695567,사직커피,4.4,35건,"서울 종로구 사직로 49-4 1, 2층",종로구 사직동,영업시간&매일 11:30 ~ 22:00,070-8845-3527,www.instagram.com/sazikcoffee,#카페 #카카오페이 #제로페이,"메뉴 이름: 고블린 (ICE) 가격: 6,500++메뉴 이름: 오미베리티 가격: 5,500++메뉴 이름: 아메리카노 가격: 4,000++메뉴 이름: 카페라떼 가격: 4,500++메뉴 이름: 그린티라떼 가격: 6,000++메뉴 이름: 요거트프라페 가격: 6,000++메뉴 이름: 밀크티라떼 가격: 6,000++메뉴 이름: 바닐라라떼 가격: 5,500++메뉴 이름: 딸기라떼 가격: 6,000",//t1.kakaocdn.net/thumb/T800x0.q80/?fname=http%3A%2F%2Ft1.daumcdn.net%2Flocalfiy%2FBD9899B0FA93406DA73242D9A1460A6C,126.9650828,37.57386511
47,종로구,26964717,코피티암커피 경복궁점,2.8,39건,서울 종로구 자하문로4길 7,종로구 사직동,영업시간&월~토 10:00 ~ 22:50&일 10:00 ~ 22:20&월~토 라스트오더 ~ 22:30&일 라스트오더 ~ 22:00,070-7670-8837,kopitiam.co.kr,#카페 #데이트코스 #브런치카페 #제로페이,"메뉴 이름: 아메리카노 가격: 4,500++메뉴 이름: 카페라떼 가격: 4,800++메뉴 이름: 바닐라 라떼 가격: 5,000++메뉴 이름: 더블 초콜릿라떼 가격: 5,500++메뉴 이름: 웰빙 미숫가루 라떼 (ICE) 가격: 6,000",//t1.kakaocdn.net/thumb/T800x0.q80/?fname=http%3A%2F%2Ft1.daumcdn.net%2Fplace%2F0429E290E454423A8BE8CB2EFD1C2CFD,126.9726383,37.57738966
48,종로구,1742096339,카페온화 익선점,2.3,39건,서울 종로구 수표로28길 21-10,종로구 종로1.2.3.4가동,영업시간&매일 12:00 ~ 22:00,,,#카페 #핸드드립전문점 #제로페이,"메뉴 이름: 에스프레소 가격: 5,000++메뉴 이름: 아메리카노 가격: 5,000++메뉴 이름: 카페라떼 가격: 5,500++메뉴 이름: 아포가토 가격: 8,000++메뉴 이름: 플랫화이트 가격: 5,200",//t1.kakaocdn.net/thumb/T800x0.q80/?fname=http%3A%2F%2Ft1.daumcdn.net%2Fplace%2F955BAED5E3C146D7BAD02D1CABEEFAF9,126.9899069,37.57334188
49,종로구,18454377,대오서점,2.7,27건,서울 종로구 자하문로7길 55,종로구 청운효자동,영업시간&매일 12:00 ~ 21:00,02-735-1349,,#카페 #독립서점 #북카페 #제로페이,"메뉴 이름: 아메리카노 가격: 5,500++메뉴 이름: 라떼 가격: 6,000++메뉴 이름: 초코렛 가격: 6,000++메뉴 이름: 보이차 가격: 5,500++메뉴 이름: 유자레몬차 가격: 6,000",,126.9693204,37.57972838
50,종로구,1067900892,칠린,3.5,31건,서울 종로구 대학로11길 41-8 1층,종로구 혜화동,영업시간&매일 12:00 ~ 24:00,,www.instagram.com/chillin_cafe_bar,#카페 #데이트코스 #분위기좋은 #소개팅 #칵테일바 #제로페이,"메뉴 이름: 아메리카노 가격: 4,000++메뉴 이름: 카페라떼 가격: 4,500++메뉴 이름: 자몽티 (HOT) 가격: 5,000++메뉴 이름: 크림라떼 가격: 5,000++메뉴 이름: 크림모카 가격: 5,500++메뉴 이름: 찰린밀크티 (ICE) 가격: 6,000++메뉴 이름: 초코라떼 가격: 5,000",//t1.kakaocdn.net/thumb/T800x0.q80/?fname=http%3A%2F%2Ft1.daumcdn.net%2Flocalfiy%2F54FC5D36E0BD4136961173DC90AD673A,126.9993694,37.58218854
51,종로구,1835543637,그레인바운더리,3.3,20건,서울 종로구 삼일대로 388-7 1층,종로구 종로1.2.3.4가동,"영업시간&월~금 07:00 ~ 22:00&토,일 11:00 ~ 22:00",,grainboundary21.modoo.at,#테마카페 #분위기좋은 #스터디카페,"메뉴 이름: Nutella Toast 가격: 7,000++메뉴 이름: Strawberry Toast 가격: 6,500++메뉴 이름: victoria cake 가격: 6,500++메뉴 이름: Banana crumble 가격: 5,000++메뉴 이름: Black forest 가격: 6,500",//t1.kakaocdn.net/thumb/T800x0.q80/?fname=http%3A%2F%2Ft1.daumcdn.net%2Fcfile%2F22159B445787A38B0F,126.9882596,37.56924931
52,종로구,1693563906,더숲 초소책방,3.6,49건,서울 종로구 인왕산로 172,종로구 청운효자동,영업시간&매일 08:00 ~ 22:00,02-735-0206,www.forest6.co.kr,#북카페 #북카페 #제로페이,"메뉴 이름: 아메리카노 가격: 4,900++메뉴 이름: 에스프레소 가격: 4,000++메뉴 이름: 카페라떼 가격: 5,500++메뉴 이름: 카푸치노 가격: 5,500++메뉴 이름: 비트차 가격: 7,000",//t1.kakaocdn.net/thumb/T800x0.q80/?fname=http%3A%2F%2Ft1.daumcdn.net%2Flocalfiy%2Fsearchregister_2079067427,126.964277,37.58595299
53,종로구,248233655,블루룸,4.4,49건,서울 종로구 대명1길 16-7 1층,종로구 혜화동,영업시간&화~일 13:00 ~ 22:00&휴무일&월요일,,www.instagram.com/_blueroom,#카페 #제로페이,,//t1.kakaocdn.net/thumb/T800x0.q80/?fname=http%3A%2F%2Ft1.daumcdn.net%2Fplace%2FA16C1D0C7AD74F11A8A7F4F3B52FEFB2,127.000273,37.58287505
54,종로구,1159708430,호아드,3,35건,서울 종로구 율곡로1길 54-3,종로구 삼청동,,02-725-1204,www.instagram.com/hoard_official,#갤러리카페 #갤러리카페 #데이트코스 #제로페이,"메뉴 이름: 쉬림프 가든 샐러드 가격: 19,000++메뉴 이름: 비프스파이시 볶음밥 가격: 19,000++메뉴 이름: 명란 오일 파스타 가격: 15,000++메뉴 이름: 키슈 스푼피자 가격: 18,000++메뉴 이름: oh~ 폭립 가격: 35,000",//t1.kakaocdn.net/thumb/T800x0.q80/?fname=http%3A%2F%2Ft1.daumcdn.net%2Fplace%2FEAC43C75ABF449679BABE247B453595B,126.981118,37.57819103
55,종로구,589900795,베어카페,3,27건,서울 종로구 자하문로24길 24,종로구 청운효자동,"영업시간&수~일 11:00 ~ 19:00&휴무일&월,화요일",070-7775-8001,www.instagram.com/bearcafe.new,#카페 #북카페 #제로페이,"메뉴 이름: 아메리카노 가격: 4,000++메뉴 이름: 라떼 가격: 4,500++메뉴 이름: 바닐라라떼 가격: 5,000++메뉴 이름: 플렛화이트 가격: 4,500++메뉴 이름: 소금 아인슈페너 가격: 5,500",//t1.kakaocdn.net/thumb/T800x0.q80/?fname=http%3A%2F%2Ft1.daumcdn.net%2Fplace%2F68F283CB82A8470B991C77993068BF07,126.971237,37.58286356
56,종로구,1245067143,그린마일커피 북촌점,3.3,36건,서울 종로구 북촌로 64,종로구 가회동,영업시간&월~금 08:00 ~ 20:00&토 10:00 ~ 20:00&일 10:00 ~ 19:00,010-8897-5509,www.instagram.com/green_mile_coffee,#카페 #데이트코스 #루프탑있는 #제로페이,"메뉴 이름: 아메리카노 가격: 5,000++메뉴 이름: 라떼 가격: 5,500++메뉴 이름: 그린마일라떼 가격: 6,000++메뉴 이름: 방콕 소다 가격: 6,000++메뉴 이름: 애플베리 티 가격: 6,000++메뉴 이름: 코코넛라떼 가격: 6,000",,126.9852369,37.58239131
57,종로구,13612324,커피방앗간,2.7,40건,서울 종로구 북촌로5가길 8-11,종로구 삼청동,영업시간&매일 08:30 ~ 23:00&휴무일&연중무휴,02-732-7656,,#커피전문점 #데이트코스 #로스팅전문 #제로페이,"메뉴 이름: 아메리카노 가격: 4,500++메뉴 이름: 카페라떼 가격: 5,000++메뉴 이름: 에스프레소 가격: 4,500++메뉴 이름: 앗뜨거 핫초코 가격: 6,500++메뉴 이름: 커피 초코와플 가격: 12,000",,126.9824708,37.58031297
58,종로구,11831528,커피한잔,4.6,37건,서울 종로구 사직로9길 16-1,종로구 사직동,영업시간&매일 12:00 ~ 22:00,02-722-7022,blog.naver.com/hgbj78,#커피전문점 #레트로풍 #로스팅전문 #빈티지분위기 #앤틱한 #핸드드립전문점 #제로페이,"메뉴 이름: 아메리카노 가격: 4,000++메뉴 이름: 카페라떼 가격: 5,000++메뉴 이름: 과테말라 가격: 6,000++메뉴 이름: 비엔나 커피 가격: 6,000++메뉴 이름: 아이스 더치 가격: 6,000++메뉴 이름: 자몽쥬스 가격: 6,000++메뉴 이름: 스콘 가격: 3,000",//t1.kakaocdn.net/thumb/T800x0.q80/?fname=http%3A%2F%2Ft1.daumcdn.net%2Fplace%2FF0A26CE4B0FF48D79A963A87E6ADADD4,126.9679356,37.5770767
59,종로구,1223984349,서화커피,4.3,23건,서울 종로구 대학로9가길 8,종로구 혜화동,영업시간&매일 11:00 ~ 22:00,070-7543-9201,www.instagram.com/seohwa_coffee,#카페 #앤틱한 #제로페이,"메뉴 이름: 아메리카노 가격: 4,000++메뉴 이름: 카페라떼 가격: 4,500++메뉴 이름: 초코라떼 가격: 5,500++메뉴 이름: 레몬 에이드 가격: 5,500++메뉴 이름: 수제 양갱 가격: 3,000",//t1.kakaocdn.net/thumb/T800x0.q80/?fname=http%3A%2F%2Ft1.daumcdn.net%2Fplace%2F85FE17E3CE6B4374B331A7714BF05B4D,127.0000106,37.58157149
60,종로구,1382305273,빌리엔젤 대학로점,3.3,12건,서울 종로구 대학로10길 24 스타리움빌딩 1층,종로구 이화동,영업시간&매일 11:00 ~ 23:00,070-5051-8136,www.billyangel.co.kr,#디저트카페 #데이트코스 #디저트카페 #제로페이,"메뉴 이름: 녹차 마카롱 가격: 2,300++메뉴 이름: 흑임자 마카롱 가격: 2,300++메뉴 이름: 블루베리크림치즈 가격: 2,300++메뉴 이름: 아메리카노 가격: 3,900++메뉴 이름: 카페라떼 가격: 4,900",//t1.kakaocdn.net/thumb/T800x0.q80/?fname=http%3A%2F%2Ft1.daumcdn.net%2Flocalfiy%2FAF2663E1D0AB4327A9FCA0D2884703BD,127.0035539,37.58160114
61,종로구,1848966218,테르트르카페,2.5,74건,서울 종로구 낙산5길 46 3~5층,종로구 창신2동,영업시간&매일 11:30 ~ 22:00,02-742-5689,instagram.com/tertre_cafe,#카페 ,"메뉴 이름: AMERICANO 가격: 7,000++메뉴 이름: LATTE 가격: 7,500++메뉴 이름: FLAT WHITE 가격: 7,500++메뉴 이름: PINK ADE 가격: 8,500++메뉴 이름: MELON PROSCIUTTO 가격: 7,500",//t1.kakaocdn.net/thumb/T800x0.q80/?fname=http%3A%2F%2Ft1.kakaocdn.net%2Ffiy_reboot%2Fplace%2FAAFE98CB86FD4CCC8EC0EB9A161C341D,127.0111905,37.57821916
62,종로구,2069685746,하프커피 안국점,3.6,24건,서울 종로구 계동길 82 1층,종로구 가회동,영업시간&매일 10:00 ~ 21:00,,www.instagram.com/halff_coffeeroasters,#카페 #핸드드립전문점,"메뉴 이름: 버터크림라떼(ICED) 가격: 6,500++메뉴 이름: 아인슈페너 가격: 5,500++메뉴 이름: 카모마일 레몬티 가격: 6,000++메뉴 이름: 애플 시나몬 루이보스티 가격: 6,000",//t1.kakaocdn.net/thumb/T800x0.q80/?fname=http%3A%2F%2Ft1.daumcdn.net%2Fplace%2F8F089E0531424AC1910F35C4A70F8B3D,126.9868407,37.58098886
63,종로구,1837149680,헤이커피,4.3,26건,서울 종로구 대학로11길 19-4 1층,종로구 혜화동,영업시간&화~일 12:00 ~ 22:00&휴무일&월요일,070-8811-0209,instagram.com/hey_____coffee,#카페 #디저트카페 #제로페이,"메뉴 이름: 아메리카노 가격: 4,500++메뉴 이름: 카페라떼 가격: 5,000++메뉴 이름: 바닐라 라떼 가격: 5,500++메뉴 이름: 쑥라떼 가격: 6,000++메뉴 이름: 얼그레이 레몬티 가격: 6,000",//t1.kakaocdn.net/thumb/T800x0.q80/?fname=http%3A%2F%2Ft1.daumcdn.net%2Fplace%2F849269CB4351441197BFB5F27EE367E6,127.0005959,37.58200328
64,종로구,1784996243,스타벅스 더종로R점,4.2,63건,서울 종로구 종로 51,종로구 종로1.2.3.4가동,"영업시간&월~금 07:30 ~ 18:00&토,일 09:00 ~ 18:00",1522-3232,www.starbucks.co.kr,#커피전문점 ,"메뉴 이름: 아이스 슈크림 라떼 가격: 6,100++메뉴 이름: 슈크림 라떼 가격: 6,100++메뉴 이름: 아이스 핑크 매그놀리아 레모네이드 가격: 6,100++메뉴 이름: 파인 코코 그린 요거트 블렌디드 가격: 6,500++메뉴 이름: 핑크 매그놀리아 레모네이드 가격: 6,100++메뉴 이름: 오늘의 커피 가격: 4,200++메뉴 이름: 카푸치노 가격: 5,000++메뉴 이름: 카페 라떼 가격: 5,000++메뉴 이름: 카페 모카 가격: 5,500++메뉴 이름: 카페 아메리카노 가격: 4,500++메뉴 이름: 카라멜 마키아또 가격: 5,900++메뉴 이름: 화이트 초콜릿 모카 가격: 5,900++메뉴 이름: 스타벅스 돌체 라떼 가격: 5,900++메뉴 이름: 자바 칩 프라푸치노 가격: 6,300++메뉴 이름: 망고 바나나 블렌디드 가격: 6,300++메뉴 이름: 아이스 자몽 허니 블랙 티 가격: 5,700++메뉴 이름: 자몽 허니 블랙 티 가격: 5,700++메뉴 이름: 콜드 브루 가격: 4,900++메뉴 이름: 디카페인 카페 아메리카노 가격: 4,800++메뉴 이름: 디카페인 카페 라떼 가격: 5,300++메뉴 이름: 제주 유기농 말차로 만든 라떼 가격: 6,100++메뉴 이름: 돌체 콜드 브루 가격: 6,000",,126.9836107,37.57074333
65,종로구,841364261,혜화역4번출구카페제이드,4.5,11건,서울 종로구 창경궁로34길 5 2층,종로구 혜화동,영업시간&매일 11:30 ~ 21:00&매일 라스트오더 ~ 20:30,02-6083-0601,www.instagram.com/gate4_cafe_jade,#카페 #디저트카페 #핸드드립전문점 #제로페이,"메뉴 이름: 아메리카노 가격: 4,500++메뉴 이름: 카페라떼 가격: 5,200++메뉴 이름: 혜화 가격: 6,000++메뉴 이름: 우유속 리얼 초코씨 가격: 5,000++메뉴 이름: 혜화 원액 (250ml) 가격: 7,000",,127.0010546,37.58476902
66,종로구,13603557,타셴,3.6,27건,서울 종로구 동숭길 113 정보빌딩 1층,종로구 이화동,영업시간&매일 11:30 ~ 22:00&휴무일&연중무휴,02-3673-4115,,#북카페 #디저트카페 #베이커리카페 #북카페 #브런치카페 #제로페이,"메뉴 이름: 타셴 클래식 버거 가격: 7,800++메뉴 이름: 타셴 시그니처 버거 가격: 8,800++메뉴 이름: 더블치즈 버거 가격: 9,800++메뉴 이름: 더블패티 버거 가격: 11,800++메뉴 이름: 트리플버섯 크림 버거 가격: 11,800++메뉴 이름: 화이트 롤 가격: 6,500++메뉴 이름: 스트로베리 프레지에 가격: 7,500++메뉴 이름: 리얼 딸기 타르트 가격: 11,000++메뉴 이름: 리얼 자몽 타르트 가격: 11,000++메뉴 이름: 리얼 청포도 타르트 가격: 8,500++메뉴 이름: 다쿠아즈 4구 세트 가격: 12,000++메뉴 이름: 다쿠아즈 6구 세트 가격: 19,000",//t1.kakaocdn.net/thumb/T800x0.q80/?fname=http%3A%2F%2Ft1.kakaocdn.net%2Ffiy_reboot%2Fplace%2F8302442E52874B3DABBD13655CF2CBD4,127.0035767,37.58297011
67,종로구,7961649,스타벅스 광화문R점,3.1,44건,서울 종로구 세종대로 167 현대해상본사사옥 별관내,종로구 사직동,"영업시간&월,화,목,금 06:30 ~ 22:00&수 06:30 ~ 21:00&토 08:00 ~ 22:00&일 08:00 ~ 21:00",1522-3232,www.starbucks.co.kr,#커피전문점 #카카오페이,"메뉴 이름: 아이스 슈크림 라떼 가격: 6,100++메뉴 이름: 슈크림 라떼 가격: 6,100++메뉴 이름: 아이스 핑크 매그놀리아 레모네이드 가격: 6,100++메뉴 이름: 파인 코코 그린 요거트 블렌디드 가격: 6,500++메뉴 이름: 핑크 매그놀리아 레모네이드 가격: 6,100++메뉴 이름: 오늘의 커피 가격: 4,200++메뉴 이름: 카푸치노 가격: 5,000++메뉴 이름: 카페 라떼 가격: 5,000++메뉴 이름: 카페 모카 가격: 5,500++메뉴 이름: 카페 아메리카노 가격: 4,500++메뉴 이름: 카라멜 마키아또 가격: 5,900++메뉴 이름: 화이트 초콜릿 모카 가격: 5,900++메뉴 이름: 스타벅스 돌체 라떼 가격: 5,900++메뉴 이름: 자바 칩 프라푸치노 가격: 6,300++메뉴 이름: 망고 바나나 블렌디드 가격: 6,300++메뉴 이름: 아이스 자몽 허니 블랙 티 가격: 5,700++메뉴 이름: 자몽 허니 블랙 티 가격: 5,700++메뉴 이름: 콜드 브루 가격: 4,900++메뉴 이름: 디카페인 카페 아메리카노 가격: 4,800++메뉴 이름: 디카페인 카페 라떼 가격: 5,300++메뉴 이름: 제주 유기농 말차로 만든 라떼 가격: 6,100++메뉴 이름: 돌체 콜드 브루 가격: 6,000",,126.9763059,37.57126998
68,종로구,146946502,블루보틀 광화문카페,4,43건,서울 종로구 청계천로 11 청계한국빌딩 1층,종로구 종로1.2.3.4가동,"영업시간&월~금 08:00 ~ 20:00&토,일 10:00 ~ 20:00",02-6212-6998,,#카페 #핸드드립전문점,"메뉴 이름: 아메리카노 (AMERICANO) (hot/iced) 가격: 5,000++메뉴 이름: 라떼 (LATTE) (hot/iced) 가격: 6,700++메뉴 이름: 블렌드 (드립) 가격: 5,200++메뉴 이름: 놀라 플로트 (NOLA FLOAT) 가격: 7,200++메뉴 이름: 레몬 유자 피즈 (LEMON YUJU FIZZ) 가격: 4,500",//t1.kakaocdn.net/thumb/T800x0.q80/?fname=http%3A%2F%2Ft1.kakaocdn.net%2Fmystore%2F7E367C59C66A4E18B2C225605F9C2D77,126.978869,37.56948657
69,종로구,203642029,덤앤더머 방탈출카페 대학로점,3.6,19건,서울 종로구 동숭길 143 로얄캐스트빌딩 지하 1층,종로구 이화동,영업시간&매일 10:00 ~ 01:00,02-741-0955,www.dumbndumber.kr,#테마카페 #데이트코스 #방탈출카페,,//t1.kakaocdn.net/thumb/T800x0.q80/?fname=http%3A%2F%2Ft1.daumcdn.net%2Fplace%2F05214E9FB471460AB7BB4E127980CBE4,127.0024351,37.58325941
70,종로구,127029191,세루리안 인사점,4.4,37건,서울 종로구 인사동12길 17 1층,종로구 종로1.2.3.4가동,영업시간&매일 10:00 ~ 21:00,02-735-5865,www.instagram.com/ceruleancoffeeco,#카페 #깔끔한 #모던한 #한옥스타일 #제로페이,"메뉴 이름: AMERICANO 가격: 4,500++메뉴 이름: LATTE 가격: 5,000++메뉴 이름: JEJU GREEN TEA 가격: 5,500",//t1.kakaocdn.net/thumb/T800x0.q80/?fname=http%3A%2F%2Ft1.daumcdn.net%2Fplace%2F946E3077CA4344F38B91932F0D9F2499,126.9864514,37.5731752
71,종로구,1631841657,스모어마켓 토이하우스,4.5,11건,서울 종로구 율곡로3길 74-3,종로구 삼청동,영업시간&화~일 11:00 ~ 20:00&휴무일&월요일,0507-1399-0801,www.instagram.com/smoremarket,#테마카페 ,"메뉴 이름: 아메리카노 가격: 4,500++메뉴 이름: 오오오 솔티 라떼 가격: 6,800++메뉴 이름: 오오오 카페 라떼 가격: 6,500++메뉴 이름: 오오오 라떼 가격: 6,500++메뉴 이름: 오! 레드 유자 가격: 6,300++메뉴 이름: 오오오 플래닛 쿠키 가격: 4,100++메뉴 이름: 카페 라떼 가격: 5,500",//t1.kakaocdn.net/thumb/T800x0.q80/?fname=http%3A%2F%2Ft1.daumcdn.net%2Fplace%2F42B806A1C3504961B047D60BB8ADED28,126.9823905,37.57903722
72,종로구,1877004477,일월일일,4.4,15건,서울 종로구 창경궁로 231 2층,종로구 혜화동,영업시간&화~일 12:00 ~ 22:00&휴무일&월요일&                                            (비정기적휴무)&이용시 주의 사항&거리두기2.5단계 : 12:00~21:00,02-747-0887,www.instagram.com/1o1o_hh,#디저트카페 #감성카페 #제로페이,"메뉴 이름: 아메리카노 가격: 5,000++메뉴 이름: 카페 라떼 가격: 5,500++메뉴 이름: 카푸치노 가격: 5,500++메뉴 이름: 오가닉 초코 가격: 6,000++메뉴 이름: 아이스티 가격: 6,000",//t1.kakaocdn.net/thumb/T800x0.q80/?fname=http%3A%2F%2Ft1.daumcdn.net%2Flocalfiy%2F650EF340B9024A7A9B664D344E10EB58,126.9980355,37.58265491
73,종로구,1670739315,커피한약방 혜화점,4.3,25건,서울 종로구 동숭2길 9,종로구 이화동,영업시간&매일 11:00 ~ 21:00 (향후 25시로 조정할 예정),070-4200-4242,,#커피전문점 #레트로풍 #로스팅전문 #핸드드립전문점,"메뉴 이름: 에스프레소 가격: 4,000++메뉴 이름: 카페라떼 가격: 4,800++메뉴 이름: 오곡라떼 가격: 5,000++메뉴 이름: 와인 에이드 가격: 5,800&",//t1.kakaocdn.net/thumb/T800x0.q80/?fname=http%3A%2F%2Ft1.daumcdn.net%2Fplace%2F63B10FD14E13426FB46646881A6ED440,127.0048165,37.5808887
74,종로구,27440580,프앙디,4.1,31건,서울 종로구 수표로28길 21-3 1층,종로구 종로1.2.3.4가동,"영업시간&월~금 11:00 ~ 22:00&토,일 10:00 ~ 22:00&휴무일&연중무휴",02-741-5982,www.instagram.com/haniuni00,#디저트카페 #데이트코스 #디저트카페 #제로페이,"메뉴 이름: 에스프레소 가격: 4,000++메뉴 이름: 아메리카노 가격: 5,000++메뉴 이름: 라떼 가격: 6,000++메뉴 이름: 레몬 에이드 가격: 6,000++메뉴 이름: 타르트 가격: 6,900",//t1.kakaocdn.net/thumb/T800x0.q80/?fname=http%3A%2F%2Ft1.daumcdn.net%2Fplace%2FA5351C8F5624467A8A187E43CDA3FCAB,126.9896874,37.57293984
75,종로구,26404597,식물,3.5,51건,서울 종로구 돈화문로11다길 46-1 1층,종로구 종로1.2.3.4가동,"영업시간&월,화,수,목,일 11:00 ~ 24:00&금,토 11:00 ~ 01:00&(2시까지 영업하는 경우도 있음)",02-742-7582,www.instagram.com/sikmul,#테마카페 #데이트코스 #레트로풍 #빈티지분위기 #수제디저트 #식물카페 #카카오페이 #제로페이,"메뉴 이름: 아메리카노 가격: 5,500++메뉴 이름: 라떼 가격: 6,000++메뉴 이름: 더치커피 가격: 6,500++메뉴 이름: 소년 가격: 7,500++메뉴 이름: 소녀 가격: 7,500++메뉴 이름: 수제 티라미수 가격: 8,000++메뉴 이름: 정세권(칵테일) 가격: 9,500++메뉴 이름: 식물 크로플 가격: 8,500",//t1.kakaocdn.net/thumb/T800x0.q80/?fname=http%3A%2F%2Ft1.daumcdn.net%2Flocalad_thumb%2Ft%2Fe530be4188f1be32febb5263beed9f3ffcb37bd4,126.9896751,37.57381066
76,종로구,1133399907,도이창카페,3.9,21건,서울 종로구 창의문로11길 10 1층,종로구 부암동,영업시간&매일 11:00 ~ 22:00&휴무일&연중무휴,02-391-1447,,#카페 #핸드드립전문점,"메뉴 이름: 아메리카노 가격: 5,000++메뉴 이름: 카페라떼 가격: 6,000++메뉴 이름: 밀크티 가격: 6,000++메뉴 이름: 잉글리쉬 블렉퍼스트 가격: 5,000++메뉴 이름: 페퍼민트 가격: 5,000",//t1.kakaocdn.net/thumb/T800x0.q80/?fname=http%3A%2F%2Ft1.daumcdn.net%2Fplace%2F59B9B33013484B6CA673C5BE3D184683,126.9627124,37.59415603
77,종로구,26451323,스노브 대학로점,2.9,43건,서울 종로구 대학로11길 12,종로구 혜화동,영업시간&매일 11:00 ~ 23:00,02-747-5770,,#디저트카페 #데이트코스 #디저트카페 #제로페이,"메뉴 이름: 아메리카노 가격: 4,000++메뉴 이름: 카페 라떼 가격: 4,500++메뉴 이름: 카모마일 가격: 4,500++메뉴 이름: 다즐링 가격: 5,000++메뉴 이름: 바닐라 얼그레이 티라떼 (HOT) 가격: 6,000",//t1.kakaocdn.net/thumb/T800x0.q80/?fname=http%3A%2F%2Ft1.daumcdn.net%2Fplace%2F0145ED35F1224959A28FB0423EB84334,127.0010445,37.58235896
78,종로구,2144966096,풍류관,3.7,30건,서울 종로구 필운대로5나길 20-12,종로구 청운효자동,영업시간&화~일 13:00 ~ 21:00&휴무일&월요일,,www.instagram.com/poongryu.hall,#카페 #핸드드립전문점 #제로페이,"메뉴 이름: 인도네시아 블랙팬서 가격: 6,000++메뉴 이름: 시그니처 커피 (ICE) 가격: 7,000++메뉴 이름: 말차 크림 브루 (ICE) 가격: 7,000++메뉴 이름: 말차 오레 (ICE) 가격: 7,000++메뉴 이름: 블루베리 루이보스 가격: 7,000",,126.9674605,37.58028109
79,종로구,704583232,벌툰 대학로점,3.6,7건,서울 종로구 대학로10길 26 5층,종로구 이화동,영업시간&매일 11:00 ~ 22:00,02-742-4158,blog.naver.com/beetoon,#만화카페 #데이트코스 #룸카페 #만화카페 #보드게임카페 #제로페이,"메뉴 이름: 아메리카노 가격: 3,000++메뉴 이름: 카페라떼 가격: 3,500++메뉴 이름: 초콜렛라떼 가격: 4,000++메뉴 이름: 오렌지 에이드 가격: 4,000++메뉴 이름: 얼그레이 가격: 3,500",//t1.kakaocdn.net/thumb/T800x0.q80/?fname=http%3A%2F%2Ft1.daumcdn.net%2Flocalfiy%2F9BB8AB8016CA42D5878E3C85B8B9764A,127.0037188,37.58160409
80,종로구,575297453,카페혜화동,3.6,25건,서울 종로구 창경궁로26길 40 2층,종로구 혜화동,영업시간&매일 12:00 ~ 22:00,02-6497-3347,www.instagram.com/cafe_hyehwadong,#카페 #감성카페 #데이트코스 #분위기좋은 #제로페이,"메뉴 이름: 오리지널 가격: 6,500++메뉴 이름: 말차 가격: 6,500++메뉴 이름: 혜화동비엔나 가격: 6,000++메뉴 이름: 혜화동크림라떼 가격: 6,000++메뉴 이름: 녹차우유 가격: 6,000++메뉴 이름: 아메리카노 가격: 4,500++메뉴 이름: 라떼 가격: 5,000",//t1.kakaocdn.net/thumb/T800x0.q80/?fname=http%3A%2F%2Ft1.daumcdn.net%2Flocalfiy%2FC19C104B74794E75B29D657D4299F840,126.9999065,37.58190239
81,종로구,2134782133,헤르만의정원,3.8,47건,서울 종로구 옥인동 39,종로구 청운효자동,"영업시간&월~금 11:00 ~ 18:00&토,일 11:00 ~ 19:00",02-737-9220,www.instagram.com/hermannsgarden,#카페 #제로페이,"메뉴 이름: 아메리카노 가격: 5,000++메뉴 이름: 카페라떼 가격: 5,500++메뉴 이름: 레드루이보스 가격: 7,000++메뉴 이름: 정원밀크티 가격: 6,000++메뉴 이름: 다즐링 가격: 8,000",//t1.kakaocdn.net/thumb/T800x0.q80/?fname=http%3A%2F%2Ft1.daumcdn.net%2Fplace%2F7D32E6F672D14A2AADDD77B902CCFE56,126.9684387,37.58159621
82,종로구,25977363,슬로스텝,3,21건,서울 종로구 대학로8가길 89 3층,종로구 이화동,영업시간&매일 11:00 ~ 22:00,02-762-2229,,#커피전문점 #데이트코스 #디저트카페 #루프탑있는 #분위기좋은 #플라워카페 #제로페이,"메뉴 이름: 녹차라떼 가격: 5,500++메뉴 이름: 초콜렛 가격: 5,500++메뉴 이름: 얼그레이 가격: 6,000++메뉴 이름: 아메리카노 가격: 4,000++메뉴 이름: 카페라떼 가격: 5,000++메뉴 이름: 크로크무슈 가격: 5,700&",//t1.kakaocdn.net/thumb/T800x0.q80/?fname=http%3A%2F%2Ft1.daumcdn.net%2Fcfile%2F2560BE33547C4A102F,127.0035331,37.58207426
83,종로구,783445002,TXT커피,4.2,32건,서울 종로구 창덕궁길 121,종로구 가회동,"영업시간&화~토 11:00 ~ 17:00&휴무일&월,일요일",070-7760-0121,www.instagram.com/txtcoffee,#카페 #데이트코스 #로스팅전문 #핸드드립전문점,"메뉴 이름: 에스프레소 가격: 6,000++메뉴 이름: 카페라떼 가격: 6,000++메뉴 이름: 카푸치노 가격: 6,000",,126.9890321,37.58286081
84,종로구,1598870515,에무시네마앤카페,4.4,26건,서울 종로구 경희궁1가길 7,종로구 사직동,,02-730-5604,www.emuartspace.com,#카페 #데이트코스 #북카페 #제로페이,"메뉴 이름: 에스프레소 가격: 3,500++메뉴 이름: 아메리카노(HOT) 가격: 4,000++메뉴 이름: 카페라떼(HOT) 가격: 4,500++메뉴 이름: 카푸치노(HOT) 가격: 4,500++메뉴 이름: 그린티라떼(HOT) 가격: 5,000",//t1.kakaocdn.net/thumb/T800x0.q80/?fname=http%3A%2F%2Ft1.daumcdn.net%2Fplace%2FA6DF135023DF415FA29E23C5FAA711D6,126.9690166,37.57207802
85,종로구,7858535,뜰안,4,20건,서울 종로구 수표로28길 17-35,종로구 종로1.2.3.4가동,영업시간&화~일 11:00 ~ 22:00&화~일 라스트오더 ~ 21:30&휴무일&월요일,02-745-7420,instagram.com/cafe_innergarden,#전통찻집 #익선동 #익선동핫플 #데이트코스 #한옥개조 #한옥스타일 #핸드드립전문점 #제로페이,"메뉴 이름: 오디차 가격: 8,000++메뉴 이름: 쌍화차 가격: 8,000++메뉴 이름: 대추영지차 가격: 8,000++메뉴 이름: 오미자차 가격: 6,000++메뉴 이름: 송화 발효차 가격: 7,000++메뉴 이름: 생강차 가격: 6,000++메뉴 이름: 유자차 가격: 5,000++메뉴 이름: 국화차 가격: 6,000++메뉴 이름: 매화차 가격: 7,000++메뉴 이름: 목련꽃차 가격: 6,000++메뉴 이름: 뜰안 단팥죽 가격: 9,000++메뉴 이름: 쑥가래떡과 조청 가격: 6,000++메뉴 이름: 떡셋트 가격: 6,000++메뉴 이름: 십전대보탕 가격: 8,000++메뉴 이름: 매실차 가격: 5,000++메뉴 이름: 녹차 가격: 8,000++메뉴 이름: 발효차 가격: 7,000++메뉴 이름: 뽕잎차 가격: 6,000++메뉴 이름: 돌감잎차 가격: 6,000++메뉴 이름: 어린쑥차 가격: 6,000",//t1.kakaocdn.net/thumb/T800x0.q80/?fname=http%3A%2F%2Ft1.kakaocdn.net%2Fmystore%2F0637A882779A40A8AD6A177899963C03,126.9894176,37.57368561
86,종로구,2015397398,낫컴플리트,4.2,34건,서울 종로구 성균관로 12-5 2층,종로구 혜화동,영업시간&월~토 12:00 ~ 22:00&휴무일&일요일,02-747-3290,www.instagram.com/notcmplt,#카페 ,"메뉴 이름: 브루드 커피 가격: 4,000++메뉴 이름: 카페라떼 가격: 4,500++메뉴 이름: 허니케이크 가격: 4,500++메뉴 이름: 딥초코 가격: 5,000++메뉴 이름: 자몽에이드 가격: 5,000++메뉴 이름: 패션후르츠에이드 가격: 5,000++메뉴 이름: 라임 모히토 가격: 8,000",//t1.kakaocdn.net/thumb/T800x0.q80/?fname=http%3A%2F%2Ft1.daumcdn.net%2Fplace%2F646667BC174A487CBF8A59F732D0D33F,126.998117,37.5842236
87,종로구,1137720981,뉴오리진 광화문점,4,14건,서울 종로구 새문안로 96,종로구 사직동,영업시간&월~토 09:00 ~ 19:30&월~토 라스트오더 ~ 18:30&휴무일&일요일,02-6367-6527,www.neworigin.co.kr,#카페 #건강식 #건강음료 #브런치카페,"메뉴 이름: 카페 아메리카노 가격: 4,600++메뉴 이름: 카페라떼 가격: 5,600++메뉴 이름: 티라미수 크림 라떼 가격: 7,000++메뉴 이름: 뉴오리진 차이 티 가격: 4,600++메뉴 이름: 오렌지&사막 당근주스 가격: 6,600",//t1.kakaocdn.net/thumb/T800x0.q80/?fname=http%3A%2F%2Ft1.daumcdn.net%2Flocalfiy%2FDE23ACB550914125A328383706710B31,126.9754312,37.56993896
88,종로구,20174469,폴바셋 광화문점,3.9,28건,서울 종로구 종로1길 50 더케이트윈타워 1층,종로구 종로1.2.3.4가동,"영업시간&월~금 07:00 ~ 22:00&토,일 08:00 ~ 22:00&공휴일&08:00 ~ 22:00",02-3701-9170,www.baristapaulbassett.co.kr,#커피전문점 #카카오페이,"메뉴 이름: 아메리카노 가격: 4,300++메뉴 이름: 콜드브루 가격: 4,700++메뉴 이름: 플랫 화이트 가격: 5,300++메뉴 이름: 카페라떼 가격: 5,300++메뉴 이름: 토마토 주스 가격: 5,000",//t1.kakaocdn.net/thumb/T800x0.q80/?fname=http%3A%2F%2Ft1.daumcdn.net%2Fplace%2FC3B54AC496E9499E83B7CA07CEC38782,126.979615,37.57477174
89,종로구,1616152867,미어캣파크 혜화점,3.2,23건,서울 종로구 대학로10길 12 6층,종로구 이화동,영업시간&매일 12:30 ~ 21:30,02-762-7201,blog.naver.com/meerkatpark,#테마카페 #고양이카페 #데이트코스 #라쿤카페 #애견카페 #이색데이트 #이색카페,,//t1.kakaocdn.net/thumb/T800x0.q80/?fname=http%3A%2F%2Ft1.daumcdn.net%2Fplace%2FDEB723E002014E8FB2F1EB05C63A7047,127.0028078,37.58161485
90,종로구,8284191,라끌레,4.4,16건,서울 종로구 팔판길 42 지하 1층,종로구 삼청동,영업시간&매일 18:30 ~ 21:00,02-734-7752,lacle.modoo.at,#카페 #낭만적인 #데이트코스 #재즈카페 #제로페이,"메뉴 이름: 죠니워커 12y (700ml) 가격: 140,000++메뉴 이름: 죠니워커 12y (375ml) 가격: 80,000++메뉴 이름: 죠니워커 12y (Double Shot) 가격: 15,000++메뉴 이름: 죠니워커 12y (Single Shot) 가격: 8,000++메뉴 이름: 잭다니엘 (700ml) 가격: 140,000++메뉴 이름: 잭다니엘 (375ml) 가격: 80,000++메뉴 이름: 잭다니엘 (Double Shot) 가격: 15,000++메뉴 이름: 잭다니엘 (Single Shot) 가격: 8,000++메뉴 이름: 엘호세꾸엘보 (750ml) 가격: 140,000++메뉴 이름: 앱솔루트 보드카 (750ml) 가격: 120,000++메뉴 이름: 앱솔루트 보드카 (500ml) 가격: 80,000++메뉴 이름: 블랙 러시안 가격: 8,000++메뉴 이름: 잭콕 가격: 8,000++메뉴 이름: 깔루아 밀크 가격: 8,000++메뉴 이름: 러시안 자몽 가격: 8,000++메뉴 이름: 라임 보드카 가격: 8,000++메뉴 이름: 진토닉 가격: 8,000++메뉴 이름: 스크류 드라이버 가격: 8,000++메뉴 이름: 체리 그라데이션 가격: 8,000++메뉴 이름: 아드리안 애플 가격: 8,000",//t1.kakaocdn.net/thumb/T800x0.q80/?fname=http%3A%2F%2Ft1.daumcdn.net%2Fplace%2F03F0272FDF93445585BC2C6C16821733,126.9814441,37.5836265
91,종로구,16874884,커피브론즈,4.6,30건,서울 종로구 율곡로5길 20 1층,종로구 삼청동,영업시간&월~금 09:30 ~ 18:00&토 11:00 ~ 18:00&휴무일&일요일&공휴일&이용시 주의 사항&20년 12월 31일 임시휴무,070-4231-8221,www.instagram.com/coffeebronze_official,#커피전문점 #로스팅전문 #제로페이,"메뉴 이름: 카페 아메리카노 가격: 4,500++메뉴 이름: 카페라떼 가격: 5,000++메뉴 이름: 아인슈패너 가격: 6,000++메뉴 이름: 스노우 카푸치노 가격: 5,500++메뉴 이름: 블랙 론즈 카푸치노 가격: 5,500",//t1.kakaocdn.net/thumb/T800x0.q80/?fname=http%3A%2F%2Ft1.daumcdn.net%2Fplace%2FB02B364B43B6405DB1A397C0B42DE388,126.9848516,37.57708305
92,종로구,1463160835,프리시즌,3.6,31건,서울 종로구 자하문로6길 9,종로구 사직동,"영업시간&월~금 11:00 ~ 22:30&토,일 10:00 ~ 22:30&매일 라스트오더 ~ 22:00",,www.instagram.com/preseason_official,#카페 #데이트코스 #루프탑있는 #제로페이,"메뉴 이름: 에스프레소 (HOT) 가격: 4,800++메뉴 이름: 아메리카노 가격: 4,800++메뉴 이름: 카페라떼 가격: 5,300++메뉴 이름: 우유 가격: 4,000++메뉴 이름: 오레몽 가격: 7,000",//t1.kakaocdn.net/thumb/T800x0.q80/?fname=http%3A%2F%2Ft1.daumcdn.net%2Flocalfiy%2Fsearchregister_1622118842,126.9726311,37.57820417
93,종로구,8405079,스타벅스 종각점,4.4,27건,서울 종로구 종로 64,종로구 종로1.2.3.4가동,영업시간&월~금 07:00 ~ 21:00&토 08:00 ~ 20:00&일 08:00 ~ 19:00,1522-3232,www.starbucks.co.kr,#커피전문점 #카카오페이,"메뉴 이름: 아이스 슈크림 라떼 가격: 6,100++메뉴 이름: 슈크림 라떼 가격: 6,100++메뉴 이름: 아이스 핑크 매그놀리아 레모네이드 가격: 6,100++메뉴 이름: 파인 코코 그린 요거트 블렌디드 가격: 6,500++메뉴 이름: 핑크 매그놀리아 레모네이드 가격: 6,100++메뉴 이름: 오늘의 커피 가격: 4,200++메뉴 이름: 카푸치노 가격: 5,000++메뉴 이름: 카페 라떼 가격: 5,000++메뉴 이름: 카페 모카 가격: 5,500++메뉴 이름: 카페 아메리카노 가격: 4,500++메뉴 이름: 카라멜 마키아또 가격: 5,900++메뉴 이름: 화이트 초콜릿 모카 가격: 5,900++메뉴 이름: 스타벅스 돌체 라떼 가격: 5,900++메뉴 이름: 자바 칩 프라푸치노 가격: 6,300++메뉴 이름: 망고 바나나 블렌디드 가격: 6,300++메뉴 이름: 아이스 자몽 허니 블랙 티 가격: 5,700++메뉴 이름: 자몽 허니 블랙 티 가격: 5,700++메뉴 이름: 콜드 브루 가격: 4,900++메뉴 이름: 디카페인 카페 아메리카노 가격: 4,800++메뉴 이름: 디카페인 카페 라떼 가격: 5,300++메뉴 이름: 제주 유기농 말차로 만든 라떼 가격: 6,100++메뉴 이름: 돌체 콜드 브루 가격: 6,000",//t1.kakaocdn.net/thumb/T800x0.q80/?fname=http%3A%2F%2Ft1.daumcdn.net%2Fplace%2F070C27C89DC94B729CE4E303C6A3EB53,126.984544,37.56996107
94,종로구,12690667,스타벅스 경복궁역점,4.4,17건,서울 종로구 자하문로4길 6 1층,종로구 사직동,"영업시간&월~금 07:00 ~ 21:00&토,일 08:00 ~ 21:00",1522-3232,www.starbucks.co.kr,#커피전문점 #카카오페이,"메뉴 이름: 아이스 슈크림 라떼 가격: 6,100++메뉴 이름: 슈크림 라떼 가격: 6,100++메뉴 이름: 아이스 핑크 매그놀리아 레모네이드 가격: 6,100++메뉴 이름: 파인 코코 그린 요거트 블렌디드 가격: 6,500++메뉴 이름: 핑크 매그놀리아 레모네이드 가격: 6,100++메뉴 이름: 오늘의 커피 가격: 4,200++메뉴 이름: 카푸치노 가격: 5,000++메뉴 이름: 카페 라떼 가격: 5,000++메뉴 이름: 카페 모카 가격: 5,500++메뉴 이름: 카페 아메리카노 가격: 4,500++메뉴 이름: 카라멜 마키아또 가격: 5,900++메뉴 이름: 화이트 초콜릿 모카 가격: 5,900++메뉴 이름: 스타벅스 돌체 라떼 가격: 5,900++메뉴 이름: 자바 칩 프라푸치노 가격: 6,300++메뉴 이름: 망고 바나나 블렌디드 가격: 6,300++메뉴 이름: 아이스 자몽 허니 블랙 티 가격: 5,700++메뉴 이름: 자몽 허니 블랙 티 가격: 5,700++메뉴 이름: 콜드 브루 가격: 4,900++메뉴 이름: 디카페인 카페 아메리카노 가격: 4,800++메뉴 이름: 디카페인 카페 라떼 가격: 5,300++메뉴 이름: 제주 유기농 말차로 만든 라떼 가격: 6,100++메뉴 이름: 돌체 콜드 브루 가격: 6,000",,126.9726341,37.57718233
95,종로구,156353882,커피기업 광화문점,4.7,27건,서울 종로구 삼봉로 71 신라스테이 1층 102호,종로구 종로1.2.3.4가동,영업시간&월~금 07:00 ~ 21:00&토 10:00 ~ 18:00&휴무일&일요일,02-6281-3977,www.tjcoffeecompany.co.kr,#카페 #제로페이,"메뉴 이름: 아메리카노 가격: 3,000++메뉴 이름: 카페라떼 가격: 3,500++메뉴 이름: 플랫화이트 가격: 4,000++메뉴 이름: 수제바닐라 가격: 4,300++메뉴 이름: 카페모카 가격: 4,000",//t1.kakaocdn.net/thumb/T800x0.q80/?fname=http%3A%2F%2Ft1.daumcdn.net%2Fplace%2FC47E43E4219A474BADFB60BAA98EEE68,126.9811146,37.57266811
96,종로구,261669543,회화나무,4.1,22건,서울 종로구 창덕궁길 35 3층,종로구 가회동,영업시간&화~일 10:30 ~ 23:00&휴무일&월요일,02-795-3500,,#카페 #핸드드립전문점 #제로페이,"메뉴 이름: 핸드드립커피 가격: 5,500++메뉴 이름: 디카페인 커피 가격: 6,000++메뉴 이름: 카페 라떼 가격: 6,000++메뉴 이름: 로얄블랜드티 가격: 6,000++메뉴 이름: 마르코폴로 티 가격: 7,000",//t1.kakaocdn.net/thumb/T800x0.q80/?fname=http%3A%2F%2Ft1.daumcdn.net%2Flocalfiy%2Fsearchregister_892072451,126.9891188,37.5790924
97,종로구,1502729906,오설록티하우스 북촌점,3.4,9건,서울 종로구 북촌로 45,종로구 가회동,영업시간&매일 11:00 ~ 21:00,,,#카페 ,,,126.984601,37.5809983
98,종로구,295738267,브라운에비뉴,4.1,24건,서울 종로구 혜화로3길 5 명륜주상복합아파트 301동 1층 112호,종로구 혜화동,영업시간&월~금 10:00 ~ 21:00&토 10:00 ~ 20:00&휴무일&일요일,02-762-8334,www.instagram.com/brown_avenue,#카페 #브런치카페 #빈티지분위기 #제로페이,"메뉴 이름: 아메리카노 가격: 4,000++메뉴 이름: 라떼 가격: 4,500++메뉴 이름: 에스프레소 가격: 4,000++메뉴 이름: 아포가토 가격: 5,500++메뉴 이름: 아이스크림라떼 가격: 6,000",//t1.kakaocdn.net/thumb/T800x0.q80/?fname=http%3A%2F%2Ft1.daumcdn.net%2Flocalfiy%2FEB86D16A72B14128BA33DCED6EEA9299,127.0002297,37.58596314
99,종로구,1443952279,소진담 안녕인사동점,3.5,17건,서울 종로구 인사동길 49 5층,종로구 종로1.2.3.4가동,영업시간&매일 10:00 ~ 22:00,,www.instagram.com/sojindam_anyounginsadong,#카페 #디저트카페 #루프탑있는 #수제케이크 #제로페이,"메뉴 이름: 아메리카노 가격: 5,000++메뉴 이름: 카페라떼 가격: 5,000++메뉴 이름: 소진담 라떼 (ICE) 가격: 7,000++메뉴 이름: 딸기라떼 (ICE) 가격: 9,000++메뉴 이름: 토피넛 라떼 (HOT) 가격: 7,000",//t1.kakaocdn.net/thumb/T800x0.q80/?fname=http%3A%2F%2Ft1.daumcdn.net%2Fplace%2F382040CF021541C7894FA06A706F0871,126.9835525,37.57446681
100,종로구,114971922,레종데트르,4,36건,서울 종로구 자하문로7길 67-2 1층,종로구 청운효자동,영업시간&화~일 12:00 ~ 21:00&휴무일&월요일,010-3279-1541,instagram.com/raisondetre_dessert,#디저트카페 #디저트카페 #제로페이,"메뉴 이름: 아메리카노 가격: 5,000++메뉴 이름: 라떼 가격: 5,500++메뉴 이름: 페퍼민트 루이보스 티 가격: 6,000++메뉴 이름: 얼그레이 티 가격: 6,000++메뉴 이름: 얼그레이 밀크티 가격: 6,000",//t1.kakaocdn.net/thumb/T800x0.q80/?fname=http%3A%2F%2Ft1.daumcdn.net%2Flocalfiy%2FCE9EF45453044617B713ECF781E6AEB3,126.9689044,37.58020197
101,종로구,25115113,스타벅스 안국점,3.3,16건,서울 종로구 북촌로 5-1,종로구 가회동,"영업시간&월~금 07:00 ~ 20:00&토,일 09:00 ~ 20:00",1522-3232,www.starbucks.co.kr,#커피전문점 #카카오페이,"메뉴 이름: 아이스 슈크림 라떼 가격: 6,100++메뉴 이름: 슈크림 라떼 가격: 6,100++메뉴 이름: 아이스 핑크 매그놀리아 레모네이드 가격: 6,100++메뉴 이름: 파인 코코 그린 요거트 블렌디드 가격: 6,500++메뉴 이름: 핑크 매그놀리아 레모네이드 가격: 6,100++메뉴 이름: 오늘의 커피 가격: 4,200++메뉴 이름: 카푸치노 가격: 5,000++메뉴 이름: 카페 라떼 가격: 5,000++메뉴 이름: 카페 모카 가격: 5,500++메뉴 이름: 카페 아메리카노 가격: 4,500++메뉴 이름: 카라멜 마키아또 가격: 5,900++메뉴 이름: 화이트 초콜릿 모카 가격: 5,900++메뉴 이름: 스타벅스 돌체 라떼 가격: 5,900++메뉴 이름: 자바 칩 프라푸치노 가격: 6,300++메뉴 이름: 망고 바나나 블렌디드 가격: 6,300++메뉴 이름: 아이스 자몽 허니 블랙 티 가격: 5,700++메뉴 이름: 자몽 허니 블랙 티 가격: 5,700++메뉴 이름: 콜드 브루 가격: 4,900++메뉴 이름: 디카페인 카페 아메리카노 가격: 4,800++메뉴 이름: 디카페인 카페 라떼 가격: 5,300++메뉴 이름: 제주 유기농 말차로 만든 라떼 가격: 6,100++메뉴 이름: 돌체 콜드 브루 가격: 6,000",//t1.kakaocdn.net/thumb/T800x0.q80/?fname=http%3A%2F%2Ft1.daumcdn.net%2Fcfile%2F252DC84A55E006DA11,126.9856536,37.57738282
102,종로구,1871429394,PKM가든카페,4,14건,서울 종로구 삼청로7길 40 PKM갤러리 2층,종로구 삼청동,영업시간&매일 10:00 ~ 22:00&매일 디너타임 18:00 ~ 22:00&매일 라스트오더 ~ 21:00&휴무일&월요일&마지막 일요일,02-734-9466,pkmgarden.com,#카페 #데이트코스,"메뉴 이름: 아메리카노(HOT) 가격: 6,000++메뉴 이름: 카페라떼(HOT) 가격: 7,000++메뉴 이름: 얼그레이(HOT) 가격: 8,000++메뉴 이름: 홈메이드 티라미수 가격: 15,000++메뉴 이름: PKM가든 파스타 가격: 24,000",//t1.kakaocdn.net/thumb/T800x0.q80/?fname=http%3A%2F%2Ft1.daumcdn.net%2Fplace%2F631B668A8539480895CB3C92570B168F,126.9800818,37.58409028
103,종로구,236480957,페이퍼마쉐,2.8,32건,서울 종로구 무교로 40,종로구 종로1.2.3.4가동,"영업시간&월~금 07:30 ~ 22:00&토,일 10:00 ~ 22:00",,,#카페 #감성카페 #디저트카페 #분위기좋은,"메뉴 이름: 아메리카노 (HOT) 가격: 4,700++메뉴 이름: 카페라떼 (HOT) 가격: 5,500++메뉴 이름: 말차라떼 (HOT) 가격: 6,000++메뉴 이름: 레몬에이드 가격: 6,000++메뉴 이름: 프렌치토스트 가격: 6,800",//t1.kakaocdn.net/thumb/T800x0.q80/?fname=http%3A%2F%2Ft1.daumcdn.net%2Fplace%2F1CD719E145E24B399D550F09A8890472,126.9794838,37.56952876
104,종로구,656948782,그라운드62,3.2,18건,서울 종로구 평창길 62,종로구 평창동,영업시간&화~일 10:30 ~ 21:00&휴무일&월요일,0507-1442-4008,www.instagram.com/ground62_,#갤러리카페 #노키즈존 #제로페이,,//t1.kakaocdn.net/thumb/T800x0.q80/?fname=http%3A%2F%2Ft1.daumcdn.net%2Flocalfiy%2FE791BB276F1F4D68BF65909789627F9C,126.963211,37.60832287
105,종로구,27331749,미담헌,3.2,45건,서울 종로구 돈화문로11다길 41,종로구 종로1.2.3.4가동,영업시간&월~금 09:00 ~ 20:00,,www.midamheon.co.kr,#카페 #돌잔치 #한옥스타일,"메뉴 이름: 아메리카노 가격: 5,000++메뉴 이름: 카페라떼 가격: 5,500++메뉴 이름: 캐모마일 메들리 가격: 6,000++메뉴 이름: 수제 레몬에이드 가격: 7,000++메뉴 이름: 당근생크림 가격: 6,500",,126.9899387,37.57366308
106,종로구,782133904,마띠에르,3.2,14건,서울 종로구 대학로11길 41-6 1층,종로구 혜화동,영업시간&매일 12:00 ~ 21:00,02-745-9717,instagram.com/official_matiere_cafe,#디저트카페 #데이트코스 #디저트카페 #로스팅전문 #핸드드립전문점 #카카오페이 #제로페이,"메뉴 이름: 플랫화이트크림 가격: 5,500++메뉴 이름: 에스프레소 가격: 4,500++메뉴 이름: 아메리카노 가격: 4,500++메뉴 이름: NEW 아인슈페너 가격: 6,000++메뉴 이름: 플랫화이트 가격: 5,000",//t1.kakaocdn.net/thumb/T800x0.q80/?fname=http%3A%2F%2Ft1.daumcdn.net%2Fplace%2FBA6FCE1057B6467C9427B18F00D1E02C,126.9992822,37.58230751
107,종로구,1951941638,도넛정수,3.1,9건,서울 종로구 창신12길 40,종로구 창신2동,영업시간&매일 11:30 ~ 21:00,02-744-5775,instagram.com/donutjungsu,#카페 #카카오페이 #제로페이,"메뉴 이름: 타락도넛 가격: 3,500++메뉴 이름: 옥수수도넛 가격: 3,500++메뉴 이름: 딸기도넛 가격: 3,500++메뉴 이름: 감자도넛 가격: 3,500++메뉴 이름: 흑임자도넛 가격: 3,500",,127.0108567,37.57827862
108,종로구,153504350,우드앤브릭 케이트윈타워점,1.6,26건,서울 종로구 종로1길 50 더케이트윈타워 B동 1층,종로구 종로1.2.3.4가동,"영업시간&월~금 07:00 ~ 22:00&토,일 10:00 ~ 20:00&공휴일&10:00 ~ 20:00",02-730-9663,woodandbrick.co.kr,#디저트카페 #제로페이,"메뉴 이름: Double Espresso (HOT) 가격: 4,000++메뉴 이름: Americano 가격: 4,000++메뉴 이름: Cafe Latte 가격: 5,000++메뉴 이름: Green Tea 가격: 5,000++메뉴 이름: Orange Juice 가격: 5,500",//t1.kakaocdn.net/thumb/T800x0.q80/?fname=http%3A%2F%2Ft1.daumcdn.net%2Flocalfiy%2FBE3C5C3CF40649DEBF29BA3D80B51496,126.979615,37.57477174
109,종로구,18677957,투썸플레이스 광화문점,3.7,15건,서울 종로구 새문안로 85,종로구 사직동,영업시간&매일 08:00 ~ 22:00&휴무일&연중무휴,02-734-2368,www.twosome.co.kr,#커피전문점 #카카오페이,,,126.974113,37.57039729
110,종로구,1099504404,루프트커피 광화문점,3.4,14건,"서울 종로구 종로 33 그랑서울 1층 112,119,120호",종로구 종로1.2.3.4가동,"영업시간&월~금 08:00 ~ 20:30&토,일 10:00 ~ 18:00",02-2158-7945,luft.kr,#카페 #로스팅전문 #카카오페이 #제로페이,"메뉴 이름: 서울 아메리카노 가격: 4,500++메뉴 이름: 루프트 아메리카노 가격: 4,500++메뉴 이름: 하와이 카우 아메리카노 가격: 5,500++메뉴 이름: 발리 블루문 아메리카노 가격: 5,500++메뉴 이름: 아인슈페너 (9oz) 가격: 5,500++메뉴 이름: 다쿠아즈 가격: 3,800",//t1.kakaocdn.net/thumb/T800x0.q80/?fname=http%3A%2F%2Ft1.daumcdn.net%2Flocalfiy%2Fsearchregister_1844904794,126.9814378,37.57096148
111,종로구,48003525,익선주택,3.3,21건,서울 종로구 수표로28길 17-33,종로구 종로1.2.3.4가동,"영업시간&월,화,수,목,일 11:00 ~ 23:00&금,토 11:00 ~ 24:00",,,#카페 #데이트코스 #분위기좋은 #빈티지분위기 #제로페이,"메뉴 이름: 아메리카노 가격: 5,000++메뉴 이름: 카페라떼 가격: 6,000++메뉴 이름: 더블초코 가격: 7,000++메뉴 이름: 말차라떼 가격: 7,000++메뉴 이름: 루이보스 바닐라 가격: 9,000",,126.9894258,37.57362256
112,종로구,19237495,카페마마스 광화문점,3.2,32건,서울 종로구 종로1길 50 더케이트윈타워 A동 1층,종로구 종로1.2.3.4가동,,02-736-1250,cafemamas.co.kr,#카페 #브런치카페,"메뉴 이름: 마마스 시그니쳐 가격: 18,500++메뉴 이름: 리코타치즈 샐러드 가격: 14,800++메뉴 이름: 클럽 샌드위치 가격: 12,800++메뉴 이름: 모짜렐라토마토 파니니 가격: 12,800++메뉴 이름: 케일청포도 주스 가격: 7,800++메뉴 이름: 마마스 스프 가격: 7,800++메뉴 이름: 마쉬룸&리코타샌드위치 가격: 14,500++메뉴 이름: 무화과프로슈토햄샌드위치 가격: 15,500++메뉴 이름: 레몬에이드 가격: 6,800++메뉴 이름: 아메리카노 가격: 4,800++메뉴 이름: 더블치즈햄파니니 가격: 12,800++메뉴 이름: 소고기가지파니니 가격: 15,500",//t1.kakaocdn.net/thumb/T800x0.q80/?fname=http%3A%2F%2Ft1.daumcdn.net%2Flocalfiy%2F024E09DE41094F56BA8C429CF40B9C7F,126.979615,37.57477174
113,종로구,1959516004,플리퍼스 익선점,3,29건,서울 종로구 수표로28길 31 1층,종로구 종로1.2.3.4가동,영업시간&매일 10:00 ~ 23:00&매일 라스트오더 ~ 22:00,,www.instagram.com/flippers.kr,#디저트카페 #디저트카페 #제로페이,"메뉴 이름: 플레인 팬케이크 가격: 16,000++메뉴 이름: 치즈 치즈 치즈 팬케이크 가격: 18,000++메뉴 이름: 아메리카노(HOT) 가격: 4,500++메뉴 이름: 카페라떼(HOT) 가격: 5,300++메뉴 이름: 페퍼민트(HOT) 가격: 5,000",//t1.kakaocdn.net/thumb/T800x0.q80/?fname=http%3A%2F%2Ft1.daumcdn.net%2Fplace%2F50F0FFB13FEE46BD866FDE34549F3052,126.990128,37.5730983
114,종로구,2066672094,카페종로시장,4.3,26건,서울 종로구 우정국로2길 10 1층,종로구 종로1.2.3.4가동,영업시간&월~토 11:00 ~ 23:00&일 11:00 ~ 20:00,02-732-1452,instagram.com/cafe_jongno_sijang,#카페 #디저트카페 #제로페이,"메뉴 이름: 스페셜아메리카노브라질 가격: 3,500++메뉴 이름: 복숭아라떼 가격: 4,500++메뉴 이름: 통자몽에이드 가격: 4,800++메뉴 이름: 브라우니 가격: 4,500++메뉴 이름: 레몬 휘낭시에 가격: 2,500++메뉴 이름: 누텔라버진 팬케이크 가격: 11,500",//t1.kakaocdn.net/thumb/T800x0.q80/?fname=http%3A%2F%2Ft1.daumcdn.net%2Fplace%2F0416B41FFE5849198CB4C0CA9AB3B8A6,126.983613,37.56939366
115,종로구,27226023,카페트레블,4.2,18건,서울 종로구 낙산3길 19-8,종로구 이화동,영업시간&화~일 11:00 ~ 23:00&휴무일&월요일,02-747-1056,cafetravel.modoo.at,#카페 #데이트코스 #루프탑있는 #제로페이,"메뉴 이름: 아메리카노 가격: 3,500++메뉴 이름: 카페라떼 가격: 4,000++메뉴 이름: 딸기라떼 가격: 5,000++메뉴 이름: 망고스무디 가격: 5,500++메뉴 이름: 타로버블티 가격: 5,000++메뉴 이름: 베이직와플 가격: 5,000++메뉴 이름: 귤차 가격: 6,000++메뉴 이름: 패션푸르츠에이드 가격: 6,000",//t1.kakaocdn.net/thumb/T800x0.q80/?fname=http%3A%2F%2Ft1.daumcdn.net%2Fplace%2FE18EEB73C4284718B169E6E0F98EEDF4,127.0064568,37.58000558
116,종로구,1294601835,빌리엔젤 광화문점,3.2,18건,서울 종로구 새문안로 92 1층,종로구 사직동,영업시간&매일 08:00 ~ 22:00,070-5051-8145,www.billyangel.co.kr,#디저트카페 #디저트카페 #제로페이,"메뉴 이름: 아메리카노 가격: 4,300++메뉴 이름: 카페라떼 가격: 4,800++메뉴 이름: 바닐라라떼 가격: 5,300++메뉴 이름: 카페모카 가격: 5,300++메뉴 이름: 레몬에이드 가격: 5,800",,126.9749084,37.56969994
117,종로구,1167226072,에일당,2.6,54건,서울 종로구 수표로28길 33-9,종로구 종로1.2.3.4가동,영업시간&매일 12:00 ~ 23:00&매일 라스트오더1 ~ 20:00&(커피 주문)&매일 라스트오더2 ~ 22:30&(음식 주문),,www.instagram.com/alepub,#카페 #데이트코스 #수제맥주 #피맥 #제로페이,"메뉴 이름: 깻잎피자 가격: 16,500++메뉴 이름: 댓 파스타 가격: 11,000++메뉴 이름: 해산물 스튜 가격: 17,000",//t1.kakaocdn.net/thumb/T800x0.q80/?fname=http%3A%2F%2Ft1.daumcdn.net%2Flocalfiy%2FEE215C839F484024A7019B8550B4F134,126.9900469,37.57356782
118,종로구,760916289,땡쓰오트 안국,4.3,63건,서울 종로구 북촌로 21-10,종로구 가회동,영업시간&매일 11:00 ~ 21:00,,instagram.com/thanksoat,#카페 #제로페이,"메뉴 이름: 바나나푸딩 가격: 7,500++메뉴 이름: 딸기레어치즈 가격: 7,500++메뉴 이름: 블루나잇 가격: 7,500++메뉴 이름: 아보카도블랜디드 가격: 7,900++메뉴 이름: 아보카도햄치즈샌드위치 가격: 8,500",//t1.kakaocdn.net/thumb/T800x0.q80/?fname=http%3A%2F%2Ft1.daumcdn.net%2Fplace%2F1277C147000445639B28698884FAC7DE,126.9846048,37.57879903
119,종로구,9476523,키미아트,3.5,14건,서울 종로구 평창30길 47,종로구 평창동,영업시간&매일 10:30 ~ 22:00,02-394-6411,www.kimiart.net,#갤러리카페 #갤러리카페 #데이트코스 #핸드드립전문점,"메뉴 이름: 에스프레소(only HOT) 가격: 5,000++메뉴 이름: 아메리카노(HOT) 가격: 6,500++메뉴 이름: 카페라떼(HOT) 가격: 7,500++메뉴 이름: 카페 바닐라(HOT) 가격: 8,000++메뉴 이름: 오미자차(HOT) 가격: 8,500",//t1.kakaocdn.net/thumb/T800x0.q80/?fname=http%3A%2F%2Ft1.daumcdn.net%2Fplace%2FAD6F11FF521F42278D71DE73993A6E43,126.9742862,37.6129966
120,종로구,1551175922,아마츄어작업실,4.3,25건,서울 종로구 청계천로 97-8,종로구 종로1.2.3.4가동,,,www.instagram.com/amateurcompany.office,#카페 #레트로풍 #빈티지분위기 #핸드드립전문점,"메뉴 이름: 오늘의 커피(HOT) 가격: 10,000++메뉴 이름: 익선동(HOT) 가격: 5,000++메뉴 이름: 비엔나커피 가격: 7,000++메뉴 이름: 사이공 라떼(ICED) 가격: 7,000++메뉴 이름: 한라봉 에이드(ICED) 가격: 7,000",//t1.kakaocdn.net/thumb/T800x0.q80/?fname=http%3A%2F%2Ft1.daumcdn.net%2Flocalfiy%2F6E614F4C6D2A4E29B32C55B3632691E1,126.9883488,37.56872692
121,종로구,27030449,스타벅스 광화문D타워점,3.2,34건,서울 종로구 종로3길 17 1층,종로구 종로1.2.3.4가동,영업시간&월~금 07:00 ~ 22:00&토 08:00 ~ 22:00&일 08:00 ~ 21:00,1522-3232,www.starbucks.co.kr,#커피전문점 #카카오페이,"메뉴 이름: 아이스 슈크림 라떼 가격: 6,100++메뉴 이름: 슈크림 라떼 가격: 6,100++메뉴 이름: 아이스 핑크 매그놀리아 레모네이드 가격: 6,100++메뉴 이름: 파인 코코 그린 요거트 블렌디드 가격: 6,500++메뉴 이름: 핑크 매그놀리아 레모네이드 가격: 6,100++메뉴 이름: 오늘의 커피 가격: 4,200++메뉴 이름: 카푸치노 가격: 5,000++메뉴 이름: 카페 라떼 가격: 5,000++메뉴 이름: 카페 모카 가격: 5,500++메뉴 이름: 카페 아메리카노 가격: 4,500++메뉴 이름: 카라멜 마키아또 가격: 5,900++메뉴 이름: 화이트 초콜릿 모카 가격: 5,900++메뉴 이름: 스타벅스 돌체 라떼 가격: 5,900++메뉴 이름: 자바 칩 프라푸치노 가격: 6,300++메뉴 이름: 망고 바나나 블렌디드 가격: 6,300++메뉴 이름: 아이스 자몽 허니 블랙 티 가격: 5,700++메뉴 이름: 자몽 허니 블랙 티 가격: 5,700++메뉴 이름: 콜드 브루 가격: 4,900++메뉴 이름: 디카페인 카페 아메리카노 가격: 4,800++메뉴 이름: 디카페인 카페 라떼 가격: 5,300++메뉴 이름: 제주 유기농 말차로 만든 라떼 가격: 6,100++메뉴 이름: 돌체 콜드 브루 가격: 6,000",,126.9789144,37.57099652
122,종로구,1352752034,천년동안도,4.7,15건,서울 종로구 수표로 134 2층 1호,종로구 종로1.2.3.4가동,영업시간&매일 18:00 ~ 24:00,02-743-5555,www.chunnyun.com,#라이브카페 #데이트코스 #라이브공연 #재즈바 #재즈카페 #제로페이,"메뉴 이름: 칵테일 가격: 15,000++메뉴 이름: 와인 가격: 48,000",,126.9884393,37.5729795
123,종로구,14095755,사직동그가게,4.4,54건,서울 종로구 사직로9길 18,종로구 사직동,영업시간&화~일 11:30 ~ 20:00&휴무일&월요일,070-4045-6331,blog.naver.com/rogpashop,#카페 #비건푸드 #이국적인 #제로페이,"메뉴 이름: 차한 커피 가격: 4,000++메뉴 이름: 티베트 허브티 가격: 5,000++메뉴 이름: 소금 라씨 가격: 6,000++메뉴 이름: 바나나 라씨 가격: 7,000++메뉴 이름: 샤프란 라씨 가격: 8,000",,126.9677679,37.57707702
124,종로구,696177330,오얏꽃,3.3,39건,서울 종로구 돈화문로11다길 15,종로구 종로1.2.3.4가동,영업시간&매일 11:00 ~ 23:00,02-762-8233,www.instagram.com/oyatt_kkot,#카페 #데이트코스 #한옥스타일 #한옥카페,"메뉴 이름: 오얏꽃 브루잉커피 가격: 8,500++메뉴 이름: 아인슈페너 가격: 7,500++메뉴 이름: 딸기패션에이드 가격: 8,000++메뉴 이름: 에스프레소 가격: 5,000++메뉴 이름: 아메리카노 가격: 5,500",//t1.kakaocdn.net/thumb/T800x0.q80/?fname=http%3A%2F%2Ft1.daumcdn.net%2Flocalfiy%2F9B437E7BE5DD4A5AAADE2DA840776BCD,126.9905758,37.57301686
125,종로구,1570833372,카페온,2,51건,서울 종로구 돈화문로11다길 17,종로구 종로1.2.3.4가동,영업시간&매일 11:00 ~ 21:00,,www.instagram.com/on_iksun,#디저트카페 ,"메뉴 이름: 융드립(보통)(HOT) 가격: 5,500++메뉴 이름: 카페오레(HOT) 가격: 6,000++메뉴 이름: 대나무찜빵(2개입) 가격: 7,000++메뉴 이름: 바스크 치즈케이크 가격: 9,500++메뉴 이름: 차이오레(HOT) 가격: 7,000++메뉴 이름: 사과에이드 가격: 6,500++메뉴 이름: 가마솥빵 가격: 12,000++메뉴 이름: 누룽지오레 가격: 6,000++메뉴 이름: 밀크티오레 가격: 6,500++메뉴 이름: 달고나오레 가격: 6,000++메뉴 이름: 프로마쥬(딸기) 가격: 16,000++메뉴 이름: 바닐라오레 가격: 6,000++메뉴 이름: 크림드립 클래식 가격: 6,000++메뉴 이름: 코코아 가격: 6,000++메뉴 이름: 과일오레 가격: 6,500++메뉴 이름: 크림드립커피 가격: 6,000++메뉴 이름: 운남차 가격: 6,000",//t1.kakaocdn.net/thumb/T800x0.q80/?fname=http%3A%2F%2Ft1.daumcdn.net%2Flocalfiy%2F3E5F34F23B3A4F4A9169E0253AA6C328,126.9905503,37.57313167
126,종로구,17351323,스타벅스 종로3가점,2.8,18건,서울 종로구 종로 113-1 1~4층,종로구 종로1.2.3.4가동,영업시간&월~토 08:00 ~ 19:00&일 10:00 ~ 18:00,1522-3232,www.starbucks.co.kr,#커피전문점 #카카오페이,"메뉴 이름: 아이스 슈크림 라떼 가격: 6,100++메뉴 이름: 슈크림 라떼 가격: 6,100++메뉴 이름: 아이스 핑크 매그놀리아 레모네이드 가격: 6,100++메뉴 이름: 파인 코코 그린 요거트 블렌디드 가격: 6,500++메뉴 이름: 핑크 매그놀리아 레모네이드 가격: 6,100++메뉴 이름: 오늘의 커피 가격: 4,200++메뉴 이름: 카푸치노 가격: 5,000++메뉴 이름: 카페 라떼 가격: 5,000++메뉴 이름: 카페 모카 가격: 5,500++메뉴 이름: 카페 아메리카노 가격: 4,500++메뉴 이름: 카라멜 마키아또 가격: 5,900++메뉴 이름: 화이트 초콜릿 모카 가격: 5,900++메뉴 이름: 스타벅스 돌체 라떼 가격: 5,900++메뉴 이름: 자바 칩 프라푸치노 가격: 6,300++메뉴 이름: 망고 바나나 블렌디드 가격: 6,300++메뉴 이름: 아이스 자몽 허니 블랙 티 가격: 5,700++메뉴 이름: 자몽 허니 블랙 티 가격: 5,700++메뉴 이름: 콜드 브루 가격: 4,900++메뉴 이름: 디카페인 카페 아메리카노 가격: 4,800++메뉴 이름: 디카페인 카페 라떼 가격: 5,300++메뉴 이름: 제주 유기농 말차로 만든 라떼 가격: 6,100++메뉴 이름: 돌체 콜드 브루 가격: 6,000",//t1.kakaocdn.net/thumb/T800x0.q80/?fname=http%3A%2F%2Ft1.daumcdn.net%2Fplace%2FF2C75FD6C77F4760B89450697D83AB2D,126.9902229,37.5705963
127,종로구,8430510,스타벅스 인사점,3.9,8건,서울 종로구 인사동길 14,종로구 종로1.2.3.4가동,영업시간&월~금 07:30 ~ 18:00&토 08:30 ~ 18:00&일 09:30 ~ 18:00,1522-3232,www.starbucks.co.kr,#커피전문점 #카카오페이,"메뉴 이름: 아이스 슈크림 라떼 가격: 6,100++메뉴 이름: 슈크림 라떼 가격: 6,100++메뉴 이름: 아이스 핑크 매그놀리아 레모네이드 가격: 6,100++메뉴 이름: 파인 코코 그린 요거트 블렌디드 가격: 6,500++메뉴 이름: 핑크 매그놀리아 레모네이드 가격: 6,100++메뉴 이름: 오늘의 커피 가격: 4,200++메뉴 이름: 카푸치노 가격: 5,000++메뉴 이름: 카페 라떼 가격: 5,000++메뉴 이름: 카페 모카 가격: 5,500++메뉴 이름: 카페 아메리카노 가격: 4,500++메뉴 이름: 카라멜 마키아또 가격: 5,900++메뉴 이름: 화이트 초콜릿 모카 가격: 5,900++메뉴 이름: 스타벅스 돌체 라떼 가격: 5,900++메뉴 이름: 자바 칩 프라푸치노 가격: 6,300++메뉴 이름: 망고 바나나 블렌디드 가격: 6,300++메뉴 이름: 아이스 자몽 허니 블랙 티 가격: 5,700++메뉴 이름: 자몽 허니 블랙 티 가격: 5,700++메뉴 이름: 콜드 브루 가격: 4,900++메뉴 이름: 디카페인 카페 아메리카노 가격: 4,800++메뉴 이름: 디카페인 카페 라떼 가격: 5,300++메뉴 이름: 제주 유기농 말차로 만든 라떼 가격: 6,100++메뉴 이름: 돌체 콜드 브루 가격: 6,000",//t1.kakaocdn.net/thumb/T800x0.q80/?fname=http%3A%2F%2Ft1.daumcdn.net%2Fcfile%2F231EB74955E006CE16,126.9869506,37.57219338
128,종로구,998204957,담장옆에국화꽃CCOT 안녕인사동점,3.5,10건,서울 종로구 인사동길 49 2층 6호,종로구 종로1.2.3.4가동,영업시간&매일 10:00 ~ 22:00,02-6954-2979,www.damccot.com,#디저트카페 #디저트카페 #떡카페 #한식디저트카페 #제로페이,"메뉴 이름: 아메리카노 가격: 4,800++메뉴 이름: 카페라떼 가격: 5,800++메뉴 이름: 워기차 가격: 6,300++메뉴 이름: 오미자생강차 가격: 6,300++메뉴 이름: 한라봉생강차 가격: 6,300",//t1.kakaocdn.net/thumb/T800x0.q80/?fname=http%3A%2F%2Ft1.daumcdn.net%2Fplace%2F21B3717E918D48EFAFCE7CD093FE7A6F,126.9835525,37.57446681
129,종로구,716586132,서울상회,4.1,16건,서울 종로구 우정국로2길 17 3층,종로구 종로1.2.3.4가동,"영업시간&화~토 12:00 ~ 22:00&월,일 13:00 ~ 22:00",,www.instagram.com/seoul_sang_hoe,#카페 #감성카페 #핸드드립전문점,"메뉴 이름: 봄꽃열매(에티오피아) 가격: 6,000++메뉴 이름: 여름 풀잎 연기 (과테말라) 가격: 6,000++메뉴 이름: 카페오레 가격: 6,000++메뉴 이름: 제주 말차크림 커피 (ICE) 가격: 7,000++메뉴 이름: 서울 아인슈페너 가격: 6,500",//t1.kakaocdn.net/thumb/T800x0.q80/?fname=http%3A%2F%2Ft1.kakaocdn.net%2Ffiy_reboot%2Fplace%2FD68C1751ACB24C3A855CE0BEC93B6C73,126.9840592,37.56964348
130,종로구,12256333,오설록 티하우스 인사동점,4.4,34건,서울 종로구 인사동길 45-1,종로구 종로1.2.3.4가동,영업시간&매일 11:00 ~ 21:00&휴무일&연중무휴,02-732-6427,www.osulloc.com,#카페 ,"메뉴 이름: 국화차(HOT) 가격: 5,500++메뉴 이름: 국화차(ICED) 가격: 6,000++메뉴 이름: 그린티 라임 모히또 가격: 6,500++메뉴 이름: 그린티 롤케익 그린 가격: 18,000++메뉴 이름: 그린티 롤케익 그린(PIECE) 가격: 5,000++메뉴 이름: 그린티 롤케익 화이트 가격: 18,000++메뉴 이름: 그린티 롤케익 화이트(PIECE) 가격: 5,000++메뉴 이름: 녹차 빙수 가격: 14,000++메뉴 이름: 녹차 아이스크림 가격: 6,000++메뉴 이름: 녹차 오프레도 가격: 7,000++메뉴 이름: 녹차 오프레도&그린티 치즈 티라미스 가격: 10,500++메뉴 이름: 녹차 카라멜 라떼(HOT) 가격: 6,000++메뉴 이름: 녹차 카라멜 라떼(ICED) 가격: 6,500++메뉴 이름: 녹차 파운드&녹차 아이스크림 가격: 8,000++메뉴 이름: 녹차라떼 & 그린티 롤케익(화이트) 가격: 9,000++메뉴 이름: 녹차라떼 더블샷(HOT) 가격: 6,000++메뉴 이름: 녹차라떼 더블샷(ICED) 가격: 6,500++메뉴 이름: 녹차라떼(HOT) 가격: 5,500++메뉴 이름: 녹차라떼(ICED) 가격: 6,000++메뉴 이름: 녹차킹 오프레도 가격: 8,500++메뉴 이름: 달빛걷기(HOT) 가격: 5,500++메뉴 이름: 달빛걷기(ICED) 가격: 6,000++메뉴 이름: 레드파파야 블랙 티(HOT) 가격: 5,500++메뉴 이름: 레드파파야 블랙 티(ICED) 가격: 6,000++메뉴 이름: 삼다연 오프레도 가격: 7,500++메뉴 이름: 삼다연 제주 영귤(HOT) 가격: 5,500++메뉴 이름: 삼다연 제주 영귤(ICED) 가격: 6,000++메뉴 이름: 삼다연 제주영귤 티에이드 가격: 6,500++메뉴 이름: 삼다연 카라멜 롤케익 가격: 18,000++메뉴 이름: 삼다연 카라멜 롤케익(PIECE) 가격: 5,000++메뉴 이름: 삼다연(HOT) 가격: 6,500++메뉴 이름: 삼다연(ICED) 가격: 7,000++메뉴 이름: 세작(HOT) 가격: 6,500++메뉴 이름: 세작(ICED) 가격: 7,000++메뉴 이름: 애플허니 티 라떼(HOT) 가격: 7,000++메뉴 이름: 애플허니 티 라떼(ICED) 가격: 7,500++메뉴 이름: 오미자차(HOT) 가격: 5,500++메뉴 이름: 오미자차(ICED) 가격: 6,000++메뉴 이름: 오설록 밀크티(HOT) 가격: 5,500++메뉴 이름: 오설록 밀크티(ICED) 가격: 6,000++메뉴 이름: 오설록 차(HOT) 가격: 4,500++메뉴 이름: 오설록 차(ICED) 가격: 5,000++메뉴 이름: 웨딩 그린티(HOT) 가격: 5,500++메뉴 이름: 웨딩 그린티(ICED) 가격: 6,000++메뉴 이름: 유자 삼다연티 가격: 5,500++메뉴 이름: 유채꿀 티 라떼(HOT) 가격: 6,500++메뉴 이름: 유채꿀 티 라떼(ICED) 가격: 7,000++메뉴 이름: 일로향 가격: 12,000++메뉴 이름: 제주 우유 아이스크림 가격: 6,000++메뉴 이름: 제주난꽃향 그린 티(HOT) 가격: 5,500++메뉴 이름: 제주난꽃향 그린 티(ICED) 가격: 6,000++메뉴 이름: 제주영귤 밀크티 가격: 7,000++메뉴 이름: 치즈닭갈비그라탕 가격: 9,500++메뉴 이름: 프레시 유자 그린티 가격: 6,500++메뉴 이름: 프레시 한라봉 그린티 가격: 6,500++메뉴 이름: 한라봉 오프레도 가격: 7,500++메뉴 이름: 호지차 빙수 가격: 14,000++메뉴 이름: 호지차 아이스크림 가격: 6,000++메뉴 이름: 호지차 카라멜 라떼(HOT) 가격: 6,000++메뉴 이름: 호지차 카라멜 라떼(ICED) 가격: 6,500++메뉴 이름: 호지차 파운드&호지차 아이스크림 가격: 8,000++메뉴 이름: 호지차라떼(HOT) 가격: 5,500++메뉴 이름: 호지차라떼(ICED) 가격: 6,000++메뉴 이름: 흑 롤케익 가격: 18,000++메뉴 이름: 흑 롤케익(PIECE) 가격: 5,000&",//t1.kakaocdn.net/thumb/T800x0.q80/?fname=http%3A%2F%2Ft1.daumcdn.net%2Fcfile%2F1166AF354FF163201F,126.9843142,37.57424363
131,종로구,43699443,폴키,4.1,34건,서울 종로구 사직로9길 6 1층,종로구 사직동,영업시간&매일 10:00 ~ 22:00,02-722-0855,blog.naver.com/folki,#테마카페 #제로페이,"메뉴 이름: 아메리카노 가격: 4,000++메뉴 이름: 카페라떼 가격: 4,500++메뉴 이름: 바닐라라떼 가격: 4,800++메뉴 이름: 아인슈페너 가격: 6,000++메뉴 이름: 말차라떼 가격: 4,800",//t1.kakaocdn.net/thumb/T800x0.q80/?fname=http%3A%2F%2Ft1.kakaocdn.net%2Ffiy_reboot%2Fplace%2F3C80E3A887124CF589377B252209F3C5,126.9687798,37.57650923
132,종로구,12578283,데미타스,3.5,22건,서울 종로구 창의문로 133 2층,종로구 부암동,영업시간&월~토 11:30 ~ 21:00&일 11:30 ~ 20:00&휴무일&수요일,02-391-6360,www.demitasse.kr,#카페 #데이트코스 #빈티지분위기 #혼밥 #제로페이,"메뉴 이름: 들깨 버섯 덮밥 가격: 13,000++메뉴 이름: 소고기 ㅤㅊㅑㅂ스테이크 덮밥 가격: 19,000++메뉴 이름: 생크림 새우 카레라이스 가격: 13,000++메뉴 이름: 매운 스지 카레라이스 가격: 13,000++메뉴 이름: 들깨버섯 크림 파스타 가격: 18,000++메뉴 이름: 바질페스토 크림 파스타 가격: 18,000++메뉴 이름: 마약 파스타 가격: 15,000++메뉴 이름: 흐린날 파스타 가격: 15,000",,126.9657251,37.59242786
133,종로구,1008989718,타스카페,4.5,13건,서울 종로구 동숭길 117,종로구 이화동,영업시간&매일 11:00 ~ 23:00,02-766-9953,,#카페 #데이트코스,"메뉴 이름: 에스프레소 가격: 4,300++메뉴 이름: 아메리카노 가격: 4,500++메뉴 이름: 플랫화이트 가격: 5,000++메뉴 이름: 카페라떼 가격: 5,300++메뉴 이름: 밀크티 가격: 5,500",,127.0034756,37.58316239
134,종로구,12108451,스타벅스 마로니에공원점,3.3,16건,서울 종로구 대학로 116 1-2층,종로구 이화동,영업시간&월~목 07:00 ~ 21:00&금 07:00 ~ 22:00&토 08:00 ~ 22:00&일 09:00 ~ 21:00,1522-3232,www.starbucks.co.kr,#커피전문점 ,"메뉴 이름: 아이스 슈크림 라떼 가격: 6,100++메뉴 이름: 슈크림 라떼 가격: 6,100++메뉴 이름: 아이스 핑크 매그놀리아 레모네이드 가격: 6,100++메뉴 이름: 파인 코코 그린 요거트 블렌디드 가격: 6,500++메뉴 이름: 핑크 매그놀리아 레모네이드 가격: 6,100++메뉴 이름: 오늘의 커피 가격: 4,200++메뉴 이름: 카푸치노 가격: 5,000++메뉴 이름: 카페 라떼 가격: 5,000++메뉴 이름: 카페 모카 가격: 5,500++메뉴 이름: 카페 아메리카노 가격: 4,500++메뉴 이름: 카라멜 마키아또 가격: 5,900++메뉴 이름: 화이트 초콜릿 모카 가격: 5,900++메뉴 이름: 스타벅스 돌체 라떼 가격: 5,900++메뉴 이름: 자바 칩 프라푸치노 가격: 6,300++메뉴 이름: 망고 바나나 블렌디드 가격: 6,300++메뉴 이름: 아이스 자몽 허니 블랙 티 가격: 5,700++메뉴 이름: 자몽 허니 블랙 티 가격: 5,700++메뉴 이름: 콜드 브루 가격: 4,900++메뉴 이름: 디카페인 카페 아메리카노 가격: 4,800++메뉴 이름: 디카페인 카페 라떼 가격: 5,300++메뉴 이름: 제주 유기농 말차로 만든 라떼 가격: 6,100++메뉴 이름: 돌체 콜드 브루 가격: 6,000",//t1.kakaocdn.net/thumb/T800x0.q80/?fname=http%3A%2F%2Ft1.daumcdn.net%2Fplace%2F1878742BBB664573B1877E4F20BCD098,127.002339,37.58153626
135,종로구,1134771025,달콤커피 청계광장점,4.5,14건,서울 종로구 종로 24-8,종로구 종로1.2.3.4가동,"영업시간&월~금 08:00 ~ 22:20&토,일 10:00 ~ 22:00",02-722-5857,www.instagram.com/dal.komm_cheonggye,#커피전문점 #루프탑있는 #카카오페이,"메뉴 이름: 아메리카노(R) 가격: 4,100++메뉴 이름: 카페라떼(R) 가격: 4,800++메뉴 이름: 자몽주스 가격: 4,800++메뉴 이름: 얼그레이클래식 가격: 4,100++메뉴 이름: 흑임자라떼 가격: 5,300",//t1.kakaocdn.net/thumb/T800x0.q80/?fname=http%3A%2F%2Ft1.daumcdn.net%2Fplace%2FED055A19B2AB44FD9C982CE4013B2026,126.9797013,37.56949925
136,종로구,404984737,낙원역,3.9,22건,서울 종로구 수표로28길 33-5 1층,종로구 종로1.2.3.4가동,영업시간&매일 11:30 ~ 22:00,02-763-1112,instagram.com/nakwonst,#카페 #이색카페 #회전초밥,"메뉴 이름: 아메리카노 가격: 5,300++메뉴 이름: 카페 라떼 가격: 5,800++메뉴 이름: 석탄커피(호지) 가격: 6,800++메뉴 이름: 땅콩 라떼 가격: 6,800++메뉴 이름: 유자민트 에이드 가격: 6,300",//t1.kakaocdn.net/thumb/T800x0.q80/?fname=http%3A%2F%2Ft1.kakaocdn.net%2Ffiy_reboot%2Fplace%2F0A3757810BA44B4DAFB9EC6632FDC6F1,126.9900468,37.5733762
137,종로구,160692195,무던,0,0건,"서울 종로구 성균관로4길 3 1,2층",종로구 혜화동,"영업시간&화~토 13:00 ~ 21:00&휴무일&월,일요일",010-3883-1036,instagram.com/cafe.mu_done,#카페 #제로페이,"메뉴 이름: 아메리카노 가격: 5,000++메뉴 이름: 레몬에이드 가격: 5,500++메뉴 이름: 젤라또 컵/콘 (2가지 맛) 가격: 5,500++메뉴 이름: to-go bag S 가격: 21,000",//t1.kakaocdn.net/thumb/T800x0.q80/?fname=http%3A%2F%2Ft1.kakaocdn.net%2Ffiy_reboot%2Fplace%2FE734C409B4624FD49ABA8E123982A372,126.9975766,37.58457282
138,종로구,144670338,슬로우포레스트,3,30건,서울 종로구 삼청로5길 20,종로구 삼청동,영업시간&매일 12:00 ~ 19:00,,www.instagram.com/_slowforest_,#카페 #루프탑있는 #애견동반카페,"메뉴 이름: 슬로우라떼(ice) 가격: 5,500++메뉴 이름: 에스프레소 가격: 4,500++메뉴 이름: 아메리카노 가격: 4,500++메뉴 이름: 카페라떼 가격: 5,000++메뉴 이름: 패션후르츠에이드 가격: 6,500",//t1.kakaocdn.net/thumb/T800x0.q80/?fname=http%3A%2F%2Ft1.daumcdn.net%2Fplace%2FC769CD0E604C4333ABB7C001DD9EB6ED,126.9807794,37.58281579
139,종로구,14578875,카페드람브르,4.1,26건,서울 종로구 종로 80 2층,종로구 종로1.2.3.4가동,"영업시간&월~목 10:30 ~ 22:30&금,토 10:30 ~ 23:00&일 11:00 ~ 21:00&공휴일&11:00 ~ 21:00",02-730-4306,,#커피전문점 #로스팅전문 #베이커리카페 #브런치카페 #제로페이,"메뉴 이름: 헤이즐넛라떼 가격: 5,100++메뉴 이름: 녹차라떼 가격: 5,100++메뉴 이름: 아메리카노 가격: 4,200++메뉴 이름: 카페라떼 가격: 4,700++메뉴 이름: 아쌈 가격: 4,200++메뉴 이름: 핫초코 가격: 4,800",,126.9862794,37.56995728
140,종로구,2065513829,브라이트사이드,3.8,14건,서울 종로구 보문로7길 3 1층,종로구 숭인2동,"영업시간&화~금 11:00 ~ 22:00&월,토,일 12:00 ~ 22:00&휴무일&연중무휴",010-7565-1780,www.instagram.com/brightside_cafe,#카페 #제로페이,"메뉴 이름: AMERICANO 가격: 4,500++메뉴 이름: BRIGHT SIDE LATTE 가격: 5,500++메뉴 이름: BRIGHT SIDE Flatspanner 가격: 6,000++메뉴 이름: BLUEBERRY HIBISCUS 가격: 6,000++메뉴 이름: STRAWBEERY TULSI 가격: 6,000",//t1.kakaocdn.net/thumb/T800x0.q80/?fname=http%3A%2F%2Ft1.daumcdn.net%2Flocalfiy%2F71F3E315BBD149E6843F64F2278B1BD3,127.0228857,37.57768564
141,종로구,27321598,카페다오,4.2,24건,서울 종로구 대학로14길 19,종로구 혜화동,"영업시간&월~금 12:00 ~ 21:30&토,일 12:00 ~ 22:00",02-745-5560,caffedaoh.modoo.at,#카페 #디저트카페 #한옥스타일 #핸드드립전문점 #제로페이,"메뉴 이름: 아메리카노 가격: 4,500++메뉴 이름: 말차갸또쇼콜라 가격: 7,000",//t1.kakaocdn.net/thumb/T800x0.q80/?fname=http%3A%2F%2Ft1.daumcdn.net%2Fplace%2F2FB9D83D958E46C5B238C02B56F0FAEC,127.0025213,37.58423773
142,종로구,1705320343,웅녀의신전 (휴업중),3.7,13건,서울 종로구 인사동길 17-1,종로구 종로1.2.3.4가동,,,www.instagram.com/templeofungnyeo,#디저트카페 #이색카페,,//t1.kakaocdn.net/thumb/T800x0.q80/?fname=http%3A%2F%2Ft1.daumcdn.net%2Fplace%2F9998BC127ED74E1C9170C55BFF849156,126.9865179,37.57244045
143,종로구,1408419754,까치화방 종로점,3.8,17건,서울 종로구 종로 51 종로타워 1층,종로구 종로1.2.3.4가동,영업시간&매일 09:00 ~ 22:00,02-730-9040,www.instagram.com/cachi_flowercafe,#테마카페 #플라워카페 #제로페이,"메뉴 이름: 까치설화(Iced) 가격: 6,200++메뉴 이름: 아메리카노(R) 가격: 4,500++메뉴 이름: 카페라떼(R) 가격: 5,000++메뉴 이름: 밀크청 가격: 6,500++메뉴 이름: 밀크홍 가격: 6,500",//t1.kakaocdn.net/thumb/T800x0.q80/?fname=http%3A%2F%2Ft1.daumcdn.net%2Fplace%2F3F426D047A9D438FBA7AFA75BFBAD6D4,126.9836107,37.57074333
144,종로구,1469807677,몽유도원도이창,2.9,7건,서울 종로구 창의문로11길 10,종로구 부암동,영업시간&매일 11:00 ~ 22:00,,,#카페 #데이트코스 #핸드드립전문점,"메뉴 이름: 아메리카노 가격: 5,000++메뉴 이름: 카페라떼 가격: 6,000++메뉴 이름: 시크릿라떼 가격: 8,000++메뉴 이름: 생두 쉐이크 가격: 6,000++메뉴 이름: 유기농 블루티 가격: 6,000",//t1.kakaocdn.net/thumb/T800x0.q80/?fname=http%3A%2F%2Ft1.daumcdn.net%2Fplace%2F475351DC5C2C4ED29ABD0DB8A99CD140,126.9627124,37.59415603
145,종로구,939605528,mrd,3.1,23건,서울 종로구 성균관로7길 32,종로구 혜화동,영업시간&월~금 12:00 ~ 20:00&토 13:00 ~ 20:00&휴무일&일요일,,www.instagram.com/mrd_coffee,#카페 #제로페이,"메뉴 이름: ESSPRESSO (HOT) 가격: 3,500++메뉴 이름: AMERICANO 가격: 4,000++메뉴 이름: FLAT WHITE 가격: 4,500++메뉴 이름: VIET LATTE 가격: 4,800++메뉴 이름: DOUBLE MILKTEA 가격: 5,300",//t1.kakaocdn.net/thumb/T800x0.q80/?fname=http%3A%2F%2Ft1.daumcdn.net%2Flocalfiy%2F6C7B3160A4F2471B8496F9E7254B4E76,126.995782,37.58784832
146,종로구,1525426810,폴바셋 종각역점,2.9,13건,서울 종로구 종로 47,종로구 종로1.2.3.4가동,영업시간&월~금 07:00 ~ 22:00&일 10:00 ~ 21:00&공휴일&10:00 ~ 21:00,02-3446-8717,www.baristapaulbassett.co.kr,#커피전문점 #로스팅전문 #카카오페이,"메뉴 이름: 오리지널 가격: 2,200++메뉴 이름: 초콜릿 가격: 2,200++메뉴 이름: 애플 가격: 2,200++메뉴 이름: 솔티드캐러멜 가격: 2,200++메뉴 이름: 플레인 베이글 가격: 2,500",//t1.kakaocdn.net/thumb/T800x0.q80/?fname=http%3A%2F%2Ft1.daumcdn.net%2Fplace%2FFA6104A4894A46109B798BCC14E2DF55,126.9823348,37.57083022
147,종로구,1368668927,얼스어스 서촌점,3.8,44건,서울 종로구 자하문로28가길 1,종로구 청운효자동,영업시간&매일 12:00 ~ 21:00,,instagram.com/earth__us,#카페 ,"메뉴 이름: Americano 가격: 5,000++메뉴 이름: Cafe latte 가격: 5,500++메뉴 이름: Cream latte 가격: 6,000++메뉴 이름: 딸기크림치즈케이크 가격: 8,000++메뉴 이름: 딸기요거트케이크 가격: 8,000",//t1.kakaocdn.net/thumb/T800x0.q80/?fname=http%3A%2F%2Ft1.daumcdn.net%2Fplace%2F89A51715E3E64B9E8C3A841DA14FAA29,126.9712463,37.5853524
148,종로구,1814996361,카페 사사,3.6,8건,서울 종로구 서순라길 147,종로구 종로1.2.3.4가동,영업시간&월~목 12:00 ~ 22:00&금~일 09:00 ~ 22:00,02-762-7001,www.instagram.com/sasa_seoul,#카페 #제로페이,"메뉴 이름: 아메리카노 돌담 가격: 5,500++메뉴 이름: 아메리카노 숲 가격: 5,500++메뉴 이름: 카페라떼 가격: 6,000++메뉴 이름: 바닐라라떼 가격: 6,500++메뉴 이름: 카페모카 가격: 6,500",//t1.kakaocdn.net/thumb/T800x0.q80/?fname=http%3A%2F%2Ft1.daumcdn.net%2Flocalfiy%2F044112804C2549D0AFB6F5A0D811FA61,126.9916241,37.57675187
149,종로구,1269840601,옥인23,4.3,19건,서울 종로구 필운대로 57 1층,종로구 청운효자동,영업시간&매일 09:00 ~ 24:00,010-8649-9291,www.instagram.com/ogin23,#커피전문점 #감성카페 #디저트카페 #브런치카페 #제로페이,"메뉴 이름: 아메리카노 가격: 3,500++메뉴 이름: 카페라떼 가격: 4,500++메뉴 이름: 바닐라라떼 가격: 4,900++메뉴 이름: 얼그레이 가격: 4,500++메뉴 이름: 페퍼민트 가격: 4,500++메뉴 이름: 캐모마일 가격: 4,500++메뉴 이름: 히비스커스 가격: 4,500++메뉴 이름: 유자차 (only hot) 가격: 4,500++메뉴 이름: 아인슈페너 (ICE) 가격: 6,000++메뉴 이름: 꿀라떼 가격: 4,900++메뉴 이름: 카라멜마끼아또 가격: 5,200++메뉴 이름: 카페모카 가격: 4,900++메뉴 이름: 말차라떼 가격: 4,500++메뉴 이름: 밀크티 가격: 4,500++메뉴 이름: 크로플 가격: 7,000++메뉴 이름: 티라미수 가격: 7,500++메뉴 이름: 오곡라떼 가격: 5,000++메뉴 이름: 초코라떼 가격: 4,500++메뉴 이름: 생과일쥬스 가격: 5,500++메뉴 이름: 에이드 가격: 4,900++메뉴 이름: 스무디 가격: 5,500++메뉴 이름: 프렌치토스트 가격: 8,500++메뉴 이름: 베이글샌드위치 가격: 2,500",//t1.kakaocdn.net/thumb/T800x0.q80/?fname=http%3A%2F%2Ft1.daumcdn.net%2Flocalfiy%2Fsearchregister_1126495404,126.968359,37.58115268
150,종로구,1432484184,비트포비아 대학로점,3.2,6건,서울 종로구 대학로10길 12 5층,종로구 이화동,영업시간&매일 10:00 ~ 23:00,02-742-5252,www.xphobia.net,#테마카페 #데이트코스 #만화카페 #방탈출카페 #심야식당 #제로페이,,,127.0028078,37.58161485
151,종로구,27395851,C플라밍고,4,18건,서울 종로구 북촌로5길 64 1층,종로구 삼청동,영업시간&월~토 11:00 ~ 22:00&일 11:00 ~ 20:00,02-722-3454,www.instagram.com/cafe_cflamingo,#디저트카페 #데이트코스,"메뉴 이름: 아메리카노 가격: 5,000++메뉴 이름: 카페라떼 가격: 5,500++메뉴 이름: 아인슈페너 가격: 6,500++메뉴 이름: 쿠로사토 가격: 6,000++메뉴 이름: 카페농 가격: 5,000",//t1.kakaocdn.net/thumb/T800x0.q80/?fname=http%3A%2F%2Ft1.daumcdn.net%2Fplace%2FA97B6947F97740DB925143591789E8C7,126.9814753,37.57994915
152,종로구,821749008,갤러리더스퀘어,4.5,19건,서울 종로구 계동길 128 201호,종로구 가회동,영업시간&월~금 12:00 ~ 20:00&공휴일&14:00 ~ 20:00,,www.instagram.com/gallery_the_square,#카페 #비건푸드 #제로페이,"메뉴 이름: 백차 베이스 말차 가격: 13,000++메뉴 이름: 운남성 홍차 (hot) 가격: 8,000++메뉴 이름: 바닐라 홍차 가격: 7,000++메뉴 이름: 백차 가격: 7,000++메뉴 이름: 달콤&베리향 마블링 라떼 (ice) 가격: 7,500",//t1.kakaocdn.net/thumb/T800x0.q80/?fname=http%3A%2F%2Ft1.daumcdn.net%2Fplace%2F00179D91687647D98485FA9EDB51A1FC,126.9870055,37.58295901
153,종로구,24178754,설빙 종각점,2.4,27건,"서울 종로구 종로 74 2,3층",종로구 종로1.2.3.4가동,영업시간&매일 11:30 ~ 23:30,02-732-6777,www.sulbing.com,#디저트카페 #카카오페이 #제로페이,,//t1.kakaocdn.net/thumb/T800x0.q80/?fname=http%3A%2F%2Ft1.daumcdn.net%2Fplace%2FCE613F096F7F4138B9039A4DD3D3398D,126.98561,37.56994202
154,종로구,17537155,카페모뜨,2.6,8건,서울 종로구 평창30길 24 가나아트센타 서울 경매 3층,종로구 평창동,영업시간&연중무휴,02-379-6500,blog.naver.com/willmotte,#카페 #제로페이,"메뉴 이름: 아보카도 루꼴라 샐러드 가격: 29,000++메뉴 이름: 깔조네 리코타 샐러드 가격: 23,000++메뉴 이름: 봉골레 파스타 가격: 27,000++메뉴 이름: 뚝배기 해물 영양밥 가격: 23,000++메뉴 이름: 살치살 스테이크 (200g) 가격: 55,000",,126.9751019,37.61180253
155,종로구,455168569,위로,4.5,19건,서울 종로구 자하문로10길 24 2층,종로구 사직동,영업시간&매일 11:00 ~ 22:00,,www.instagram.com/wero.place,#카페 #빈티지분위기 #제로페이,"메뉴 이름: 아메리카노 가격: 5,000++메뉴 이름: 라떼 가격: 5,500++메뉴 이름: 위로라떼 가격: 5,800++메뉴 이름: 자몽에이드 가격: 6,500++메뉴 이름: 밀크티 가격: 6,500",//t1.kakaocdn.net/thumb/T800x0.q80/?fname=http%3A%2F%2Ft1.daumcdn.net%2Flocalfiy%2F37CF19FCFCCA475A997D03711671A7A2,126.9728257,37.57921455
156,종로구,1033782082,스타벅스 혜화역점,3.8,5건,"서울 종로구 대학로12길 4 1,2층",종로구 이화동,"영업시간&월~금 08:00 ~ 22:00&토,일 09:00 ~ 22:00",1522-3232,www.starbucks.co.kr,#커피전문점 ,"메뉴 이름: 아이스 슈크림 라떼 가격: 6,100++메뉴 이름: 슈크림 라떼 가격: 6,100++메뉴 이름: 아이스 핑크 매그놀리아 레모네이드 가격: 6,100++메뉴 이름: 파인 코코 그린 요거트 블렌디드 가격: 6,500++메뉴 이름: 핑크 매그놀리아 레모네이드 가격: 6,100++메뉴 이름: 오늘의 커피 가격: 4,200++메뉴 이름: 카푸치노 가격: 5,000++메뉴 이름: 카페 라떼 가격: 5,000++메뉴 이름: 카페 모카 가격: 5,500++메뉴 이름: 카페 아메리카노 가격: 4,500++메뉴 이름: 카라멜 마키아또 가격: 5,900++메뉴 이름: 화이트 초콜릿 모카 가격: 5,900++메뉴 이름: 스타벅스 돌체 라떼 가격: 5,900++메뉴 이름: 자바 칩 프라푸치노 가격: 6,300++메뉴 이름: 망고 바나나 블렌디드 가격: 6,300++메뉴 이름: 아이스 자몽 허니 블랙 티 가격: 5,700++메뉴 이름: 자몽 허니 블랙 티 가격: 5,700++메뉴 이름: 콜드 브루 가격: 4,900++메뉴 이름: 디카페인 카페 아메리카노 가격: 4,800++메뉴 이름: 디카페인 카페 라떼 가격: 5,300++메뉴 이름: 제주 유기농 말차로 만든 라떼 가격: 6,100++메뉴 이름: 돌체 콜드 브루 가격: 6,000",//t1.kakaocdn.net/thumb/T800x0.q80/?fname=http%3A%2F%2Ft1.daumcdn.net%2Fplace%2F9B6A43F02F2E4A1ABA29EF19B473844F,127.0021987,37.58251706
157,종로구,26436728,미라보쇼콜라,4.6,27건,서울 종로구 자하문로5길 6 1층,종로구 사직동,,02-720-8652,www.mirabeau.co.kr,#커피전문점 #데이트코스 #수제초콜릿 #제로페이,"메뉴 이름: 에스프레소(HOT) 가격: 3,000++메뉴 이름: 아메리카노 가격: 3,500++메뉴 이름: 카페라떼(HOT) 가격: 4,000++메뉴 이름: 쇼콜라(HOT) 가격: 6,000++메뉴 이름: 카카오밀크티(HOT) 가격: 5,500++메뉴 이름: 밀크아이스크림 가격: 3,500",//t1.kakaocdn.net/thumb/T800x0.q80/?fname=http%3A%2F%2Ft1.kakaocdn.net%2Fmystore%2F92942A38B8CF458993BF66E58932DC48,126.9714002,37.57780541
158,종로구,145128148,커피원,4.9,16건,서울 종로구 새문안로3길 12,종로구 사직동,"영업시간&월~금 07:30 ~ 17:00&휴무일&토,일요일&공휴일",,instagram.com/coffeeone.official,#커피전문점 #디저트카페 #제로페이,,,126.9729437,37.57131812
159,종로구,1797985577,놀숲 종로관철점,4.6,8건,서울 종로구 삼일대로17길 8 대신빌딩 3층,종로구 종로1.2.3.4가동,영업시간&매일 10:00 ~ 24:00,02-730-2049,www.nolsoop.co.kr,#만화카페 #데이트코스 #만화카페 #보드게임카페 #북카페 #수면카페,"메뉴 이름: 아메리카노 가격: 3,000++메뉴 이름: 카페라떼 가격: 3,800++메뉴 이름: 놀숲 짜장면 가격: 4,500++메뉴 이름: 놀숲 불 볶음면 가격: 4,500++메뉴 이름: 놀숲 로제 리조또 가격: 6,000",,126.9871617,37.56927051
160,종로구,12969109,카페포엠 안국역점,3.6,17건,서울 종로구 북촌로5길 19-4,종로구 삼청동,"영업시간&월~금 09:00 ~ 22:00&토,일 10:00 ~ 22:00&공휴일&10:00 ~ 22:00",070-8805-4440,blog.naver.com/cafe4mgcc,#카페 #제로페이,"메뉴 이름: 아메리카노 가격: 5,500++메뉴 이름: 에스프레소 가격: 4,500++메뉴 이름: 에스프레소 마끼아또 가격: 5,000++메뉴 이름: 에스프레소 콘파냐 가격: 5,000++메뉴 이름: 에스크레소 사케라또 가격: 7,000++메뉴 이름: 아포가토 가격: 7,500++메뉴 이름: 카푸치노 가격: 6,000++메뉴 이름: 카페라떼 가격: 6,000++메뉴 이름: 카페 바닐라 라떼 가격: 6,500++메뉴 이름: 카페 헤이즐넛 라떼 가격: 6,500++메뉴 이름: 카라멜 마키아또 가격: 6,500++메뉴 이름: 카페 모카 가격: 7,000++메뉴 이름: 더치 아메리카노 가격: 6,500++메뉴 이름: 더치 카페오레 가격: 7,000++메뉴 이름: 그랜드 얼그레이 가격: 8,500++메뉴 이름: 바닐라 카라멜 가격: 8,500++메뉴 이름: 레드베리즈 가격: 8,500++메뉴 이름: 다즐링 가격: 8,500++메뉴 이름: 애플체리 가격: 8,500++메뉴 이름: 브랙퍼스트 가격: 7,500",,126.9838621,37.57924304
161,종로구,804621746,카페골목숲,2.1,15건,"서울 종로구 삼청로 86-3 1, 2층",종로구 삼청동,영업시간&매일 12:00 ~ 21:30&공휴일&12:00 ~ 21:30,070-4250-1664,,#커피전문점 #데이트코스 #디저트카페 #루프탑있는 #분위기좋은 #수제디저트 #수제케이크 #제로페이,"메뉴 이름: 에스프레소 가격: 4,500++메뉴 이름: 아메리카노 가격: 5,000++메뉴 이름: 카푸치노 가격: 5,500++메뉴 이름: 카페라떼 가격: 5,500++메뉴 이름: 수제과일청 에이드 가격: 6,800",//t1.kakaocdn.net/thumb/T800x0.q80/?fname=http%3A%2F%2Ft1.daumcdn.net%2Flocalfiy%2FC130F04759C94BCAB4AF4E8961128006,126.9820602,37.58319205
162,종로구,1064802781,이음,4.8,8건,서울 종로구 창의문로 137 2동 3층 201호,종로구 부암동,"영업시간&월,금,토,일 13:00 ~ 19:00&휴무일&화,수,목요일",02-391-2010,www.teaimporter.kr,#카페 ,"메뉴 이름: 티 테이스팅 코스(1팀) 가격: 50,000",//t1.kakaocdn.net/thumb/T800x0.q80/?fname=http%3A%2F%2Ft1.daumcdn.net%2Flocalfiy%2F359333CF13094A4EA54FA2B4F26C959B,126.9653142,37.59237976
163,종로구,1763973219,타이프 삼청,3.1,12건,서울 종로구 삼청로 22-9,종로구 삼청동,영업시간&매일 11:00 ~ 21:00,,instagram.com/type.samcheong,#카페 ,"메뉴 이름: 에스프레소 가격: 5,500++메뉴 이름: 아메리카노 가격: 5,500++메뉴 이름: 라떼 가격: 6,000++메뉴 이름: 바닐라라떼 가격: 6,500++메뉴 이름: 바닐라아이스크림 가격: 7,000",//t1.kakaocdn.net/thumb/T800x0.q80/?fname=http%3A%2F%2Ft1.daumcdn.net%2Fplace%2F16936C0E5FF24B6DB1A7CF68F4938C75,126.9802354,37.57787961
164,종로구,1944209059,리틀버틀러,3.4,38건,서울 종로구 북촌로 8 1층,종로구 가회동,"영업시간&월~금 08:00 ~ 22:00&토,일 10:00 ~ 22:00",,instagram.com/cafe.littlebutler,#카페 #이국적인,"메뉴 이름: 에스프레소 가격: 4,500++메뉴 이름: 아메리카노 가격: 5,000++메뉴 이름: 라떼 가격: 5,500++메뉴 이름: 바닐라 슈패너 가격: 6,500++메뉴 이름: 레몬 라임 에이드 가격: 7,000",//t1.kakaocdn.net/thumb/T800x0.q80/?fname=http%3A%2F%2Ft1.kakaocdn.net%2Ffiy_reboot%2Fplace%2FEA8001940D7546B1979A65787E0670B8,126.9859537,37.57759144
165,종로구,20035255,라디오엠 삼청점,2.4,36건,"서울 종로구 삼청로2길 37-2 1,2층",종로구 삼청동,영업시간&연중무휴,02-737-4669,www.facebook.com/radiom.co.kr,#카페 #데이트코스 #베이커리카페 #카카오페이 #제로페이,"메뉴 이름: 아메리카노 가격: 5,300++메뉴 이름: 카페라떼 가격: 5,800++메뉴 이름: 그린티 라떼 가격: 5,800++메뉴 이름: 블루 레몬에이드 가격: 6,800++메뉴 이름: 딸기 라떼 가격: 8,500",//t1.kakaocdn.net/thumb/T800x0.q80/?fname=http%3A%2F%2Ft1.daumcdn.net%2Fplace%2FFB25E5A5562B4477A2A871F1ECE4986C,126.9812799,37.57995838
166,종로구,821514313,파네트 크루아상팩토리,4.5,30건,서울 종로구 사직로8길 24,종로구 사직동,영업시간&매일 08:00 ~ 20:00,02-720-5570,,#디저트카페 ,,,126.9712468,37.573974
167,종로구,25115112,스타벅스 삼청동점,4.2,18건,서울 종로구 삼청로 111-1 1층,종로구 삼청동,"영업시간&월~목 07:30 ~ 17:00&토,일 08:30 ~ 19:00&금 07:30 ~ 19:00",1522-3232,www.starbucks.co.kr,#커피전문점 #카카오페이,"메뉴 이름: 아이스 슈크림 라떼 가격: 6,100++메뉴 이름: 슈크림 라떼 가격: 6,100++메뉴 이름: 아이스 핑크 매그놀리아 레모네이드 가격: 6,100++메뉴 이름: 파인 코코 그린 요거트 블렌디드 가격: 6,500++메뉴 이름: 핑크 매그놀리아 레모네이드 가격: 6,100++메뉴 이름: 오늘의 커피 가격: 4,200++메뉴 이름: 카푸치노 가격: 5,000++메뉴 이름: 카페 라떼 가격: 5,000++메뉴 이름: 카페 모카 가격: 5,500++메뉴 이름: 카페 아메리카노 가격: 4,500++메뉴 이름: 카라멜 마키아또 가격: 5,900++메뉴 이름: 화이트 초콜릿 모카 가격: 5,900++메뉴 이름: 스타벅스 돌체 라떼 가격: 5,900++메뉴 이름: 자바 칩 프라푸치노 가격: 6,300++메뉴 이름: 망고 바나나 블렌디드 가격: 6,300++메뉴 이름: 아이스 자몽 허니 블랙 티 가격: 5,700++메뉴 이름: 자몽 허니 블랙 티 가격: 5,700++메뉴 이름: 콜드 브루 가격: 4,900++메뉴 이름: 디카페인 카페 아메리카노 가격: 4,800++메뉴 이름: 디카페인 카페 라떼 가격: 5,300++메뉴 이름: 제주 유기농 말차로 만든 라떼 가격: 6,100++메뉴 이름: 돌체 콜드 브루 가격: 6,000",,126.9817852,37.58538787
168,종로구,1614503310,궤도,3.7,26건,서울 종로구 필운대로 9-2 3층,종로구 사직동,영업시간&매일 12:00 ~ 22:00 (비정기 휴무는 인스타그램에 공지),,www.instagram.com/gwehdo,#카페 #핸드드립전문점,"메뉴 이름: 에스프레소 가격: 4,000++메뉴 이름: 아메리카노 가격: 5,000++메뉴 이름: 라떼 가격: 5,500++메뉴 이름: 백차 가격: 7,000++메뉴 이름: Lemon moose 가격: 6,500",,126.9690655,37.5771438
169,종로구,1822481162,카페랑솜,2.9,16건,"서울 종로구 대학로11길 22 2,3층",종로구 혜화동,영업시간&매일 12:00 ~ 23:00,02-742-2185,,#커피전문점 #제로페이,"메뉴 이름: 아메리카노 가격: 4,500++메뉴 이름: 카페라떼 가격: 5,000++메뉴 이름: 달고나커피 가격: 5,500++메뉴 이름: 바닐라빈 아인슈패너 가격: 6,000++메뉴 이름: 딸기 듬뿍 생크림 케이크 가격: 6,500",//t1.kakaocdn.net/thumb/T800x0.q80/?fname=http%3A%2F%2Ft1.kakaocdn.net%2Ffiy_reboot%2Fplace%2F1543A8B8301B4B609C4C9C361DDD60FB,127.0004423,37.58233388
170,종로구,18691076,스타벅스 종로관수점,3.9,16건,서울 종로구 삼일대로20길 13,종로구 종로1.2.3.4가동,"영업시간&수~토 07:30 ~ 21:00&월,화 07:30 ~ 20:00&일 10:00 ~ 18:00",1522-3232,www.starbucks.co.kr,#커피전문점 #카카오페이,"메뉴 이름: 아이스 슈크림 라떼 가격: 6,100++메뉴 이름: 슈크림 라떼 가격: 6,100++메뉴 이름: 아이스 핑크 매그놀리아 레모네이드 가격: 6,100++메뉴 이름: 파인 코코 그린 요거트 블렌디드 가격: 6,500++메뉴 이름: 핑크 매그놀리아 레모네이드 가격: 6,100++메뉴 이름: 오늘의 커피 가격: 4,200++메뉴 이름: 카푸치노 가격: 5,000++메뉴 이름: 카페 라떼 가격: 5,000++메뉴 이름: 카페 모카 가격: 5,500++메뉴 이름: 카페 아메리카노 가격: 4,500++메뉴 이름: 카라멜 마키아또 가격: 5,900++메뉴 이름: 화이트 초콜릿 모카 가격: 5,900++메뉴 이름: 스타벅스 돌체 라떼 가격: 5,900++메뉴 이름: 자바 칩 프라푸치노 가격: 6,300++메뉴 이름: 망고 바나나 블렌디드 가격: 6,300++메뉴 이름: 아이스 자몽 허니 블랙 티 가격: 5,700++메뉴 이름: 자몽 허니 블랙 티 가격: 5,700++메뉴 이름: 콜드 브루 가격: 4,900++메뉴 이름: 디카페인 카페 아메리카노 가격: 4,800++메뉴 이름: 디카페인 카페 라떼 가격: 5,300++메뉴 이름: 제주 유기농 말차로 만든 라떼 가격: 6,100++메뉴 이름: 돌체 콜드 브루 가격: 6,000",//t1.kakaocdn.net/thumb/T800x0.q80/?fname=http%3A%2F%2Ft1.daumcdn.net%2Fcfile%2F2263FB4B55E006B818,126.9886743,37.56975929
171,종로구,485843115,숙녀미용실 카페앤펍,0,0건,서울 종로구 삼일대로32길 41 1층,종로구 종로1.2.3.4가동,"영업시간&화~토 12:00 ~ 22:00&휴무일&월,일요일&이용시 주의 사항&BAR 메뉴는 16시부터 주문가능",02-6083-6420,www.instagram.com/sooknyo_salon,#카페 #낮술하기좋은 #데이트코스 #레트로풍 #분위기좋은 #브런치카페 #빈티지분위기 #제로페이,"메뉴 이름: 아메리카노 가격: 3,500++메뉴 이름: 카페라떼 가격: 4,000++메뉴 이름: 얼그레이 홍차 가격: 4,000++메뉴 이름: 라임 레몬차 가격: 5,000++메뉴 이름: 밀크티 가격: 5,000",//t1.kakaocdn.net/thumb/T800x0.q80/?fname=http%3A%2F%2Ft1.daumcdn.net%2Flocalfiy%2F4F9C541A6E9549FB9746E687314A5F8A,126.9892874,37.57553957
172,종로구,1138992842,마샹스,4.6,41건,서울 종로구 자하문로 36 1층,종로구 사직동,"영업시간&월,수,목,금 11:00 ~ 20:00&토,일 11:00 ~ 22:00&휴무일&화요일",,www.instagram.com/machance1,#카페 #제로페이,"메뉴 이름: 생로랑 가격: 7,000++메뉴 이름: 카르페디엠 가격: 7,000++메뉴 이름: 딸기밀크티 가격: 7,500++메뉴 이름: 레몬에이드 가격: 7,000++메뉴 이름: 아메리카노 가격: 5,500++메뉴 이름: 카페라떼 가격: 6,000",//t1.kakaocdn.net/thumb/T800x0.q80/?fname=http%3A%2F%2Ft1.daumcdn.net%2Flocalfiy%2FA89C1E3C49EB458E9EF6F7635C14A189,126.9717572,37.57926836
173,종로구,24579066,투썸플레이스 종로3가역점,1.1,23건,서울 종로구 수표로 106,종로구 종로1.2.3.4가동,"영업시간&월~금 08:00 ~ 23:30&토,일 08:00 ~ 23:30",02-742-1008,www.twosome.co.kr,#커피전문점 #카카오페이,,//t1.kakaocdn.net/thumb/T800x0.q80/?fname=http%3A%2F%2Ft1.daumcdn.net%2Fplace%2F7DA31F750B3240C4890A601AA9B4FC57,126.9895536,37.57075683
174,종로구,1244045579,셜록홈즈 대학로점,4.5,4건,서울 종로구 대학로10길 5 4층,종로구 이화동,"영업시간&월~금 12:00 ~ 23:30&토,일 10:00 ~ 23:30",02-2277-0198,sherlock-holmes.co.kr,#테마카페 #데이트코스 #방탈출카페,,,127.0025803,37.58186177
175,종로구,923427859,감꽃당,2.7,38건,서울 종로구 돈화문로11다길 38,종로구 종로1.2.3.4가동,영업시간&매일 09:00 ~ 22:30,02-747-3999,,#디저트카페 #데이트코스 #베이커리카페 #제로페이,"메뉴 이름: 아메리카노(HOT) 가격: 5,300++메뉴 이름: 카페라떼(HOT) 가격: 6,500++메뉴 이름: 얼그레이(HOT) 가격: 6,500++메뉴 이름: 로얄밀크티(HOT) 가격: 6,500++메뉴 이름: 자몽에이드 가격: 7,500",,126.9900801,37.57378988
176,종로구,22763366,카페첫만남,3.8,14건,서울 종로구 대학로9길 12 1층,종로구 혜화동,영업시간&매일 10:00 ~ 23:00&휴무일&설당일&추석당일,02-766-2337,cafefirsttime.modoo.at,#카페 #스터디카페 #제로페이,"메뉴 이름: 에스프레소 가격: 3,800++메뉴 이름: 아메리카노 가격: 4,300++메뉴 이름: 에스프레소 아포가또 가격: 7,000++메뉴 이름: 더치커피 가격: 5,500++메뉴 이름: 더치라떼 가격: 6,000++메뉴 이름: 질소커피 가격: 5,500++메뉴 이름: 뉴올리언스 커피 가격: 4,800++메뉴 이름: 뉴올리언스 라떼 가격: 5,300++메뉴 이름: 달콤한 첫만남 라떼 가격: 6,000++메뉴 이름: 오렌지커피 가격: 5,000++메뉴 이름: 오렌지비앙코 가격: 5,500++메뉴 이름: 비엔나커피 가격: 6,500++메뉴 이름: 오키나와 흑당 라떼 가격: 6,000++메뉴 이름: 오늘의커피 가격: 4,500++메뉴 이름: 콜롬비아 수프리모 가격: 5,000++메뉴 이름: 인도네시아 만델링 가격: 5,000++메뉴 이름: 과테말라 안티구아 가격: 5,000++메뉴 이름: 브라질 산토스 가격: 5,000++메뉴 이름: 엘살바도르 에스메랄다 가격: 5,000++메뉴 이름: 탄자니아 AA 킬리만자로 가격: 5,500",//t1.kakaocdn.net/thumb/T800x0.q80/?fname=http%3A%2F%2Ft1.daumcdn.net%2Fplace%2F9C1E48A6FBEE463A83288D7BB7A92B49,127.0010956,37.58180593
177,종로구,2116856688,에그마카슈,4.4,18건,서울 종로구 대학로12길 13 청민빌딩 1층,종로구 이화동,영업시간&매일 11:00 ~ 21:00 (20:30 이후 타르트 소진시 종료),010-9998-5584,www.에그마카슈.com,#디저트카페 #데이트코스 #디저트카페 #제로페이,"메뉴 이름: 아메리카노 가격: 2,000++메뉴 이름: 카페라떼 가격: 3,000++메뉴 이름: 녹차라떼 가격: 3,000++메뉴 이름: 에그타르트 가격: 2,200++메뉴 이름: 초코타르트 가격: 2,400",//t1.kakaocdn.net/thumb/T800x0.q80/?fname=http%3A%2F%2Ft1.daumcdn.net%2Fplace%2FC590F19F01984847A48C8B2FC76BB63C,127.0025327,37.5827438
178,종로구,10826403,커피빈 광화문점,4.6,18건,서울 종로구 종로 14 센트리얼빌딩 1층,종로구 종로1.2.3.4가동,영업시간&월~금 07:00 ~ 22:30&토 07:30 ~ 22:00&일 09:00 ~ 22:00&공휴일&09:00 ~ 23:30,02-3210-2326,www.coffeebeankorea.com,#커피전문점 #카카오페이,,//t1.kakaocdn.net/thumb/T800x0.q80/?fname=http%3A%2F%2Ft1.daumcdn.net%2Fplace%2FAD405173E4B443F08A89D3EE880ECE36,126.9788625,37.56981328
179,종로구,1442885240,스타벅스 동묘앞역점,4.2,19건,"서울 종로구 종로 344 101,201호",종로구 숭인2동,영업시간&월~금 07:00 ~ 20:00&토 07:30 ~ 19:00&일 08:00 ~ 19:00,1522-3232,www.starbucks.co.kr,#커피전문점 #카카오페이,"메뉴 이름: 아이스 슈크림 라떼 가격: 6,100++메뉴 이름: 슈크림 라떼 가격: 6,100++메뉴 이름: 아이스 핑크 매그놀리아 레모네이드 가격: 6,100++메뉴 이름: 파인 코코 그린 요거트 블렌디드 가격: 6,500++메뉴 이름: 핑크 매그놀리아 레모네이드 가격: 6,100++메뉴 이름: 오늘의 커피 가격: 4,200++메뉴 이름: 카푸치노 가격: 5,000++메뉴 이름: 카페 라떼 가격: 5,000++메뉴 이름: 카페 모카 가격: 5,500++메뉴 이름: 카페 아메리카노 가격: 4,500++메뉴 이름: 카라멜 마키아또 가격: 5,900++메뉴 이름: 화이트 초콜릿 모카 가격: 5,900++메뉴 이름: 스타벅스 돌체 라떼 가격: 5,900++메뉴 이름: 자바 칩 프라푸치노 가격: 6,300++메뉴 이름: 망고 바나나 블렌디드 가격: 6,300++메뉴 이름: 아이스 자몽 허니 블랙 티 가격: 5,700++메뉴 이름: 자몽 허니 블랙 티 가격: 5,700++메뉴 이름: 콜드 브루 가격: 4,900++메뉴 이름: 디카페인 카페 아메리카노 가격: 4,800++메뉴 이름: 디카페인 카페 라떼 가격: 5,300++메뉴 이름: 제주 유기농 말차로 만든 라떼 가격: 6,100++메뉴 이름: 돌체 콜드 브루 가격: 6,000",,127.0160831,37.57272308
180,종로구,9861869,별다방미스리 인사동점,2.4,19건,서울 종로구 인사동길 59 2층,종로구 종로1.2.3.4가동,영업시간&매일 10:00 ~ 23:00,02-739-0939,,#카페 #데이트코스 #레트로풍 #이색카페,"메뉴 이름: 아메리카노 가격: 4,800++메뉴 이름: 카페라떼 가격: 5,300++메뉴 이름: 바나나주스 가격: 6,000++메뉴 이름: 오미자스무디 가격: 6,000++메뉴 이름: 수정과 가격: 5,500",//t1.kakaocdn.net/thumb/T800x0.q80/?fname=http%3A%2F%2Ft1.daumcdn.net%2Fcfile%2F1525D1474F796A7005,126.9833815,37.57513981
181,종로구,7962128,스타벅스 주얼리시티점,3.1,9건,서울 종로구 종로 183 주얼리시티 1층,종로구 종로1.2.3.4가동,"영업시간&월~금 07:00 ~ 19:00&토,일 08:00 ~ 19:00",1522-3232,www.starbucks.co.kr,#커피전문점 #카카오페이,"메뉴 이름: 아이스 슈크림 라떼 가격: 6,100++메뉴 이름: 슈크림 라떼 가격: 6,100++메뉴 이름: 아이스 핑크 매그놀리아 레모네이드 가격: 6,100++메뉴 이름: 파인 코코 그린 요거트 블렌디드 가격: 6,500++메뉴 이름: 핑크 매그놀리아 레모네이드 가격: 6,100++메뉴 이름: 오늘의 커피 가격: 4,200++메뉴 이름: 카푸치노 가격: 5,000++메뉴 이름: 카페 라떼 가격: 5,000++메뉴 이름: 카페 모카 가격: 5,500++메뉴 이름: 카페 아메리카노 가격: 4,500++메뉴 이름: 카라멜 마키아또 가격: 5,900++메뉴 이름: 화이트 초콜릿 모카 가격: 5,900++메뉴 이름: 스타벅스 돌체 라떼 가격: 5,900++메뉴 이름: 자바 칩 프라푸치노 가격: 6,300++메뉴 이름: 망고 바나나 블렌디드 가격: 6,300++메뉴 이름: 아이스 자몽 허니 블랙 티 가격: 5,700++메뉴 이름: 자몽 허니 블랙 티 가격: 5,700++메뉴 이름: 콜드 브루 가격: 4,900++메뉴 이름: 디카페인 카페 아메리카노 가격: 4,800++메뉴 이름: 디카페인 카페 라떼 가격: 5,300++메뉴 이름: 제주 유기농 말차로 만든 라떼 가격: 6,100++메뉴 이름: 돌체 콜드 브루 가격: 6,000",//t1.kakaocdn.net/thumb/T800x0.q80/?fname=http%3A%2F%2Ft1.daumcdn.net%2Fcfile%2F2130E04F55E006CB31,126.9986607,37.57144149
182,종로구,12087590,B2프로젝트,3.9,16건,서울 종로구 동숭3길 6-6,종로구 이화동,영업시간&매일 12:00 ~ 22:00&휴무일&공휴일,02-747-5435,www.b2project.co.kr,#갤러리카페 #가구카페 #데이트코스 #빈티지분위기 #소개팅 #제로페이,"메뉴 이름: 에스프레소 가격: 4,500++메뉴 이름: 아메리카노 가격: 5,000++메뉴 이름: 카페라떼 가격: 5,500++메뉴 이름: 핸드드립 가격: 6,000++메뉴 이름: 카페 콘비라 (ICE) 가격: 7,500",//t1.kakaocdn.net/thumb/T800x0.q80/?fname=http%3A%2F%2Ft1.daumcdn.net%2Fcfile%2F19245C3A4F45EB392F,127.0048326,37.58112997
183,종로구,1794711302,쏘리에스프레소바,4.9,178건,서울 종로구 자하문로2길 12 1층,종로구 사직동,"영업시간&월~금 08:00 ~ 18:00&토,일 11:00 ~ 18:00&공휴일&11:00 ~ 18:00",010-9536-9659,www.instagram.com/sorry_espressobar,#카페 #경복궁맛집 #서울에스프레소바 #서촌에그타르트 #에그타르트 #종로에그타르트 #스탠딩바 #카카오페이 #제로페이,"메뉴 이름: 에스프레소 가격: 1,500++메뉴 이름: 에그타르트 가격: 2,000++메뉴 이름: 에스프레소 마끼아또 가격: 2,000++메뉴 이름: 에스프레소 스트라파짜토 가격: 1,800++메뉴 이름: 에그타르트 콤보 가격: 3,500++메뉴 이름: 에그타르트 한상자 가격: 11,000",//t1.kakaocdn.net/thumb/T800x0.q80/?fname=http%3A%2F%2Ft1.kakaocdn.net%2Fmystore%2FB3B1D2226529468E8BC1BB90955A9F8E,126.9733608,37.57650506
184,종로구,23258602,투썸플레이스 종각역점,2,30건,서울 종로구 종로 72,종로구 종로1.2.3.4가동,영업시간&월~목 08:00 ~ 23:30&금 08:00 ~ 24:00&토 08:30 ~ 24:00&일 08:30 ~ 23:00&공휴일&08:30 ~ 23:00,02-722-2077,www.twosome.co.kr,#커피전문점 #혼밥 #카카오페이 #제로페이,,//t1.kakaocdn.net/thumb/T800x0.q80/?fname=http%3A%2F%2Ft1.daumcdn.net%2Fplace%2F9709F312DCB249CD836A6F025CE6C7FC,126.9853891,37.56995124
185,종로구,21233626,경인미술관 전통다원,3.8,17건,서울 종로구 인사동10길 11-4 경인미술관 내,종로구 종로1.2.3.4가동,,02-733-4448,www.kyunginart.co.kr/kor/blue/sub01.asp,#전통찻집 #앤틱한 #한옥개조,"메뉴 이름: 대추차 가격: 7,000++메뉴 이름: 쌍화차 가격: 8,000++메뉴 이름: 생강차 가격: 7,000++메뉴 이름: 인삼차 가격: 7,000++메뉴 이름: 유자차 가격: 7,000",,126.9866182,37.57320396
186,종로구,1984928445,무네,4,8건,서울 종로구 자하문로 258,종로구 부암동,영업시간&매일 11:00 ~ 21:30&매일 라스트오더 ~ 21:00,02-6328-0258,www.instagram.com/cafe_mune,#카페 #감성카페 #애견동반식당,"메뉴 이름: 아메리카노 가격: 4,500++메뉴 이름: 카페라떼 가격: 5,000++메뉴 이름: 바닐라라떼 가격: 5,500++메뉴 이름: 초코라떼 가격: 6,000++메뉴 이름: 히비스커스 허브차 가격: 5,000",//t1.kakaocdn.net/thumb/T800x0.q80/?fname=http%3A%2F%2Ft1.daumcdn.net%2Flocalfiy%2F6DFD30D7D60F4CA1A1E77E554C812D9C,126.9635608,37.59727177
187,종로구,1654396478,벌툰 종각점,4.3,9건,서울 종로구 종로14길 9 3층,종로구 종로1.2.3.4가동,영업시간&매일 10:00 ~ 24:00,02-739-5367,,#만화카페 #데이트코스 #만화카페 #보드게임카페 #제로페이,,//t1.kakaocdn.net/thumb/T800x0.q80/?fname=http%3A%2F%2Ft1.daumcdn.net%2Flocalfiy%2Fsearchregister_698471601,126.9870678,37.56964974
188,종로구,18122637,마농트로포,3,29건,서울 종로구 사직로9가길 10 1층,종로구 사직동,영업시간&월~토 11:00 ~ 22:00&일 11:00 ~ 21:00,02-794-0011,instagram.com/_manontroppo_,#카페 #디저트카페 #분위기좋은 #제로페이,"메뉴 이름: 마농케이크 가격: 7,500++메뉴 이름: 밀크얼그레이 가격: 8,500++메뉴 이름: 산딸기초코무스 가격: 8,500++메뉴 이름: 티라미수 가격: 8,500++메뉴 이름: 블랙타르트 가격: 8,000++메뉴 이름: 바나나타르트 가격: 8,000++메뉴 이름: 미니에끌레어 가격: 4,500++메뉴 이름: 마카롱 가격: 2,500++메뉴 이름: 얼그레이쉬폰 가격: 7,500++메뉴 이름: 시즌타르트 가격: 8,500++메뉴 이름: 치즈케이크 가격: 8,000",//t1.kakaocdn.net/thumb/T800x0.q80/?fname=http%3A%2F%2Ft1.kakaocdn.net%2Ffiy_reboot%2Fplace%2F62865076F65149089F16D4E0C7F1731B,126.9689737,37.57681998
189,종로구,15635736,담,3.2,20건,서울 종로구 효자로 19 1층,종로구 사직동,영업시간&매일 12:00 ~ 20:00,,,#카페 #데이트코스 #분위기좋은 #소개팅 #카카오페이 #제로페이,"메뉴 이름: 아메리카노 가격: 7,000++메뉴 이름: 에스프레소 가격: 7,000++메뉴 이름: 카페라떼 가격: 8,000++메뉴 이름: 밀크티 가격: 9,000++메뉴 이름: 녹차 가격: 9,000",,126.9737674,37.57777209
190,종로구,1846455949,스타벅스 종로평창점,3.6,17건,서울 종로구 평창12길 3,종로구 평창동,영업시간&매일 07:00 ~ 21:00,1522-3232,www.starbucks.co.kr,#커피전문점 #카카오페이,"메뉴 이름: 아이스 슈크림 라떼 가격: 6,100++메뉴 이름: 슈크림 라떼 가격: 6,100++메뉴 이름: 아이스 핑크 매그놀리아 레모네이드 가격: 6,100++메뉴 이름: 파인 코코 그린 요거트 블렌디드 가격: 6,500++메뉴 이름: 핑크 매그놀리아 레모네이드 가격: 6,100++메뉴 이름: 오늘의 커피 가격: 4,200++메뉴 이름: 카푸치노 가격: 5,000++메뉴 이름: 카페 라떼 가격: 5,000++메뉴 이름: 카페 모카 가격: 5,500++메뉴 이름: 카페 아메리카노 가격: 4,500++메뉴 이름: 카라멜 마키아또 가격: 5,900++메뉴 이름: 화이트 초콜릿 모카 가격: 5,900++메뉴 이름: 스타벅스 돌체 라떼 가격: 5,900++메뉴 이름: 자바 칩 프라푸치노 가격: 6,300++메뉴 이름: 망고 바나나 블렌디드 가격: 6,300++메뉴 이름: 아이스 자몽 허니 블랙 티 가격: 5,700++메뉴 이름: 자몽 허니 블랙 티 가격: 5,700++메뉴 이름: 콜드 브루 가격: 4,900++메뉴 이름: 디카페인 카페 아메리카노 가격: 4,800++메뉴 이름: 디카페인 카페 라떼 가격: 5,300++메뉴 이름: 제주 유기농 말차로 만든 라떼 가격: 6,100++메뉴 이름: 돌체 콜드 브루 가격: 6,000",,126.9672222,37.60617441
191,종로구,1640534397,타이거타이거,4.3,7건,서울 종로구 삼일대로30길 56 1층,종로구 종로1.2.3.4가동,영업시간&매일 11:00 ~ 24:00,02-747-1986,www.instagram.com/tigertiger_seoul,#카페 #데이트코스 #루프탑있는 #보드게임카페 #분위기좋은 #식물카페 #제로페이,"메뉴 이름: 수제 티라미수 가격: 7,000++메뉴 이름: 아인슈페너 가격: 4,500++메뉴 이름: 카페라떼 가격: 4,500++메뉴 이름: 카푸치노 가격: 4,500++메뉴 이름: 에스프레소 가격: 3,000++메뉴 이름: 아메리카노 가격: 3,800++메뉴 이름: 플랫화이트 가격: 4,500",//t1.kakaocdn.net/thumb/T800x0.q80/?fname=http%3A%2F%2Ft1.daumcdn.net%2Fcfile%2F24704F4A58351E6C02,126.990806,37.57433833
192,종로구,1626917734,스타벅스 정부서울청사R점,3.8,27건,서울 종로구 새문안로5가길 28 광화문플래티넘 1층,종로구 사직동,영업시간&매일 07:00 ~ 21:00,1522-3232,www.starbucks.co.kr,#커피전문점 #핸드드립전문점 #카카오페이,"메뉴 이름: 아이스 슈크림 라떼 가격: 6,100++메뉴 이름: 슈크림 라떼 가격: 6,100++메뉴 이름: 아이스 핑크 매그놀리아 레모네이드 가격: 6,100++메뉴 이름: 파인 코코 그린 요거트 블렌디드 가격: 6,500++메뉴 이름: 핑크 매그놀리아 레모네이드 가격: 6,100++메뉴 이름: 오늘의 커피 가격: 4,200++메뉴 이름: 카푸치노 가격: 5,000++메뉴 이름: 카페 라떼 가격: 5,000++메뉴 이름: 카페 모카 가격: 5,500++메뉴 이름: 카페 아메리카노 가격: 4,500++메뉴 이름: 카라멜 마키아또 가격: 5,900++메뉴 이름: 화이트 초콜릿 모카 가격: 5,900++메뉴 이름: 스타벅스 돌체 라떼 가격: 5,900++메뉴 이름: 자바 칩 프라푸치노 가격: 6,300++메뉴 이름: 망고 바나나 블렌디드 가격: 6,300++메뉴 이름: 아이스 자몽 허니 블랙 티 가격: 5,700++메뉴 이름: 자몽 허니 블랙 티 가격: 5,700++메뉴 이름: 콜드 브루 가격: 4,900++메뉴 이름: 디카페인 카페 아메리카노 가격: 4,800++메뉴 이름: 디카페인 카페 라떼 가격: 5,300++메뉴 이름: 제주 유기농 말차로 만든 라떼 가격: 6,100++메뉴 이름: 돌체 콜드 브루 가격: 6,000",//t1.kakaocdn.net/thumb/T800x0.q80/?fname=http%3A%2F%2Ft1.daumcdn.net%2Fplace%2FFAD54F4B99DB4B0D9C4E5D95C5221BA4,126.9735974,37.57446114
193,종로구,24944966,제비꽃다방,4,23건,서울 종로구 창의문로 146,종로구 부암동,"영업시간&화~금 17:00 ~ 24:00&토,일 13:00 ~ 24:00&휴무일&월요일",02-379-2741,www.facebook.com/jv.davant,#카페 #갤러리카페 #데이트코스 #빈티지분위기 #피맥 #제로페이,"메뉴 이름: 아메리카노(HOT) 가격: 5,000++메뉴 이름: 카페라떼(HOT) 가격: 5,500++메뉴 이름: 히비스커스 가격: 6,500++메뉴 이름: 뉴욕 치즈 케익 가격: 7,000++메뉴 이름: 화이트 티라미수 케익 가격: 7,000",//t1.kakaocdn.net/thumb/T800x0.q80/?fname=http%3A%2F%2Ft1.daumcdn.net%2Flocalfiy%2F8207EB22553F4A42916CD6040BA937EF,126.964474,37.59294497
194,종로구,20941365,럼버잭,3.9,17건,서울 종로구 창의문로 151,종로구 부암동,영업시간&화~일 12:00 ~ 01:00&휴무일&월요일,,,#카페 #분위기좋은 #빈티지분위기 #앤틱한 #제로페이,"메뉴 이름: AMERICANO 가격: 5,500++메뉴 이름: CAPPUCCINO (HOT) 가격: 6,000++메뉴 이름: CAFFE LATTE 가격: 6,000++메뉴 이름: LEMON ADE 가격: 7,500++메뉴 이름: MARCO POLO 가격: 7,500",//t1.kakaocdn.net/thumb/T800x0.q80/?fname=http%3A%2F%2Ft1.daumcdn.net%2Fplace%2F871C84D1FC3B42AF98556C6EBFF35556,126.9635641,37.59326532
195,종로구,292864195,혜화랑,4,6건,서울 종로구 대학로14길 22-3 1층,종로구 혜화동,"영업시간&월~금 17:00 ~ 01:00&토,일 16:00 ~ 01:00",02-765-7342,www.instagram.com/hhrang14,#카페 #데이트코스 #분위기좋은 #소개팅 #와인바 #와인카페 #테라스가있는 #제로페이,"메뉴 이름: 채끝스테이크 (230g) 가격: 36,000++메뉴 이름: 크림찹스테이크 (170g) 가격: 25,000++메뉴 이름: 구운채소 가격: 20,000++메뉴 이름: 까망베르사과그라탕 가격: 20,000++메뉴 이름: 소시지구이 가격: 20,000++메뉴 이름: 감바스알아히오 가격: 20,000",//t1.kakaocdn.net/thumb/T800x0.q80/?fname=http%3A%2F%2Ft1.daumcdn.net%2Flocalfiy%2F0649E336B0EC4A3DA41059FFF70104A4,127.0027878,37.58429177
196,종로구,1965455565,통인스윗카페,4.2,18건,서울 종로구 자하문로7길 10,종로구 청운효자동,영업시간&매일 10:00 ~ 22:00,02-737-8777,,#카페 #한옥스타일,"메뉴 이름: 아메리카노 가격: 4,000++메뉴 이름: 에그타르트 가격: 3,000++메뉴 이름: 하우스와인 가격: 7,000",//t1.kakaocdn.net/thumb/T800x0.q80/?fname=http%3A%2F%2Ft1.daumcdn.net%2Fplace%2F29776C15D45C4897BF461D604C480EAE,126.9711803,37.5783757
197,종로구,239519782,풀오브파운드,4.5,19건,서울 종로구 사직로12길 1-2,종로구 사직동,영업시간&월~토 11:00 ~ 22:00&일 12:00 ~ 20:00,02-720-4009,www.instagram.com/fullofpound,#카페 #로스팅전문 #한옥스타일 #제로페이,"메뉴 이름: 얼그레이카페라떼 가격: 6,500++메뉴 이름: Fp 크림라떼 가격: 6,500++메뉴 이름: 에스프레소 가격: 4,000++메뉴 이름: 아메리카노 가격: 4,500++메뉴 이름: 카페라떼 가격: 5,000",,126.9712423,37.57560434
198,종로구,12611094,티테라피 행랑점,4.5,26건,서울 종로구 윤보선길 74,종로구 삼청동,영업시간&매일 10:00 ~ 21:00 (식사 평일 11:30 ~ 14:00),02-730-7507,teatherapy.com,#카페 #건강식 #데이트코스 #점심식사 #제로페이,"메뉴 이름: 원기차 (HOT) 가격: 8,000++메뉴 이름: 원기차 (ICED) 가격: 8,000++메뉴 이름: 은경차 (HOT) 가격: 8,000++메뉴 이름: 은경차 (ICED) 가격: 8,000++메뉴 이름: 건위차 (HOT) 가격: 8,000++메뉴 이름: 건위차 (ICED) 가격: 8,000++메뉴 이름: 보신차 (HOT) 가격: 8,000++메뉴 이름: 보신차 (ICED) 가격: 8,000++메뉴 이름: 보음차 (HOT) 가격: 8,000++메뉴 이름: 보음차 (ICED) 가격: 8,000++메뉴 이름: 향통차 (HOT) 가격: 8,000++메뉴 이름: 향통차 (ICED) 가격: 8,000++메뉴 이름: 감모차 (HOT) 가격: 8,000++메뉴 이름: 감모차 (ICED) 가격: 8,000++메뉴 이름: 감비차 (HOT) 가격: 8,000++메뉴 이름: 감비차 (ICED) 가격: 8,000++메뉴 이름: 성주차 (HOT) 가격: 8,000++메뉴 이름: 성주차 (ICED) 가격: 8,000++메뉴 이름: 안심차 (HOT) 가격: 8,000++메뉴 이름: 안심차 (ICED) 가격: 8,000",//t1.kakaocdn.net/thumb/T800x0.q80/?fname=http%3A%2F%2Ft1.daumcdn.net%2Flocalfiy%2F5ABCA532224F470B82F8927D143C5100,126.9835483,37.5791628
199,종로구,26410050,스타벅스 북촌로점,4,9건,서울 종로구 북촌로4길 23 1층~3층,종로구 가회동,"영업시간&월~금 07:00 ~ 18:00&토,일 08:30 ~ 19:00",1522-3232,www.starbucks.co.kr,#커피전문점 #카카오페이,"메뉴 이름: 아이스 슈크림 라떼 가격: 6,100++메뉴 이름: 슈크림 라떼 가격: 6,100++메뉴 이름: 아이스 핑크 매그놀리아 레모네이드 가격: 6,100++메뉴 이름: 파인 코코 그린 요거트 블렌디드 가격: 6,500++메뉴 이름: 핑크 매그놀리아 레모네이드 가격: 6,100++메뉴 이름: 오늘의 커피 가격: 4,200++메뉴 이름: 카푸치노 가격: 5,000++메뉴 이름: 카페 라떼 가격: 5,000++메뉴 이름: 카페 모카 가격: 5,500++메뉴 이름: 카페 아메리카노 가격: 4,500++메뉴 이름: 카라멜 마키아또 가격: 5,900++메뉴 이름: 화이트 초콜릿 모카 가격: 5,900++메뉴 이름: 스타벅스 돌체 라떼 가격: 5,900++메뉴 이름: 자바 칩 프라푸치노 가격: 6,300++메뉴 이름: 망고 바나나 블렌디드 가격: 6,300++메뉴 이름: 아이스 자몽 허니 블랙 티 가격: 5,700++메뉴 이름: 자몽 허니 블랙 티 가격: 5,700++메뉴 이름: 콜드 브루 가격: 4,900++메뉴 이름: 디카페인 카페 아메리카노 가격: 4,800++메뉴 이름: 디카페인 카페 라떼 가격: 5,300++메뉴 이름: 제주 유기농 말차로 만든 라떼 가격: 6,100++메뉴 이름: 돌체 콜드 브루 가격: 6,000",//t1.kakaocdn.net/thumb/T800x0.q80/?fname=http%3A%2F%2Ft1.daumcdn.net%2Fplace%2FA62B9706B3E047B5898C25DB9C000725,126.9864795,37.57946969
200,종로구,20046345,스타벅스 대학로점,4.4,13건,서울 종로구 대학로 57 홍익대학교 대학로캠퍼스 1층,종로구 이화동,영업시간&화~금 07:00 ~ 21:00&월 07:00 ~ 20:00&토 08:00 ~ 20:00&일 09:00 ~ 19:00,1522-3232,www.starbucks.co.kr,#커피전문점 #카카오페이,"메뉴 이름: 아이스 슈크림 라떼 가격: 6,100++메뉴 이름: 슈크림 라떼 가격: 6,100++메뉴 이름: 아이스 핑크 매그놀리아 레모네이드 가격: 6,100++메뉴 이름: 파인 코코 그린 요거트 블렌디드 가격: 6,500++메뉴 이름: 핑크 매그놀리아 레모네이드 가격: 6,100++메뉴 이름: 오늘의 커피 가격: 4,200++메뉴 이름: 카푸치노 가격: 5,000++메뉴 이름: 카페 라떼 가격: 5,000++메뉴 이름: 카페 모카 가격: 5,500++메뉴 이름: 카페 아메리카노 가격: 4,500++메뉴 이름: 카라멜 마키아또 가격: 5,900++메뉴 이름: 화이트 초콜릿 모카 가격: 5,900++메뉴 이름: 스타벅스 돌체 라떼 가격: 5,900++메뉴 이름: 자바 칩 프라푸치노 가격: 6,300++메뉴 이름: 망고 바나나 블렌디드 가격: 6,300++메뉴 이름: 아이스 자몽 허니 블랙 티 가격: 5,700++메뉴 이름: 자몽 허니 블랙 티 가격: 5,700++메뉴 이름: 콜드 브루 가격: 4,900++메뉴 이름: 디카페인 카페 아메리카노 가격: 4,800++메뉴 이름: 디카페인 카페 라떼 가격: 5,300++메뉴 이름: 제주 유기농 말차로 만든 라떼 가격: 6,100++메뉴 이름: 돌체 콜드 브루 가격: 6,000",//t1.kakaocdn.net/thumb/T800x0.q80/?fname=http%3A%2F%2Ft1.daumcdn.net%2Fplace%2F4AC6B57860224265A78C4D67CAF86234,127.001447,37.57655824
201,종로구,80159168,카페알베르게,4.7,18건,서울 종로구 필운대로 53-30,종로구 청운효자동,"영업시간&화,수,목,금,일 12:00 ~ 21:00&토 12:00 ~ 22:00&휴무일&월요일",02-423-8833,www.cafe-albergue.com,#카페 #데이트코스 #이색카페 #제로페이,"메뉴 이름: 카페 아메리카노 가격: 4,500++메뉴 이름: 카페 라떼 가격: 5,000++메뉴 이름: 오렌지 에이드 가격: 6,000++메뉴 이름: 스페인 허니 홍차 가격: 5,500++메뉴 이름: 카페 콘 레체 가격: 5,500",//t1.kakaocdn.net/thumb/T800x0.q80/?fname=http%3A%2F%2Ft1.daumcdn.net%2Flocalfiy%2F93F753CD1C0F4F059B06365006576464,126.9679771,37.58080169
202,종로구,24812138,할리스 세종로점,3,23건,"서울 종로구 세종대로 161 2,3층",종로구 사직동,영업시간&매일 00:00 ~ 24:00,02-720-5582,www.hollys.co.kr,#커피전문점 #24시간카페,"메뉴 이름: 티아라 딸기 생크림 케이크 가격: 32,000++메뉴 이름: 해피 홀리데이 세트 가격: 18,600++메뉴 이름: 스윗 뉴 이어 세트 가격: 18,300++메뉴 이름: 해피 크로플 세트 가격: 20,600++메뉴 이름: 뚱카롱 세트 가격: 8,700++메뉴 이름: 딸기치즈스윗박스 가격: 6,900++메뉴 이름: 해피 도넛 딸기 할리치노 - R/ICE 가격: 6,300++메뉴 이름: 더 진한 딸기 스무디 - R/ICE 가격: 6,800++메뉴 이름: 할리스 리프레시 세트 가격: 20,300++메뉴 이름: 할리스 브런치 세트 가격: 19,300",,126.9762661,37.5706806
203,종로구,354474224,아뻬 서울,4.5,27건,서울 종로구 창경궁로35나길 1 1층,종로구 혜화동,영업시간&매일 12:30 ~ 21:00,010-7390-8742,apeseoul.kr,#카페 #제로페이,"메뉴 이름: 서울 허니 카페라떼 가격: 7,000++메뉴 이름: 디.오.씨 가격: 7,000++메뉴 이름: 천연벌집꿀 아포가토 가격: 9,000++메뉴 이름: 까놀레 아이스크림 샌드 가격: 5,500++메뉴 이름: 까놀레 가격: 2,500",//t1.kakaocdn.net/thumb/T800x0.q80/?fname=http%3A%2F%2Ft1.daumcdn.net%2Flocalfiy%2FE4603601D8DE44BB823BA90B776BED37,127.0012027,37.58728998
204,종로구,17321687,카페트루어스,4.7,13건,"서울 종로구 인사동길 11 2,3층",종로구 종로1.2.3.4가동,영업시간&매일 08:30 ~ 23:00&휴무일&연중무휴,02-722-4855,,#카페 #데이트코스 #디저트카페 #로스팅전문,"메뉴 이름: 까페 아메리카노 가격: 4,800++메뉴 이름: 카페라떼 가격: 5,300++메뉴 이름: 리얼 블루베리 라떼 가격: 5,800++메뉴 이름: 핑크 레몬 에이드 가격: 6,800++메뉴 이름: 루이보스 오렌지 가격: 9,000",//t1.kakaocdn.net/thumb/T800x0.q80/?fname=http%3A%2F%2Ft1.daumcdn.net%2Fplace%2F437300E945474BA59CAA8CA26BA5AC37,126.9867938,37.57184
205,종로구,1647661190,월영당 서울,3.3,6건,서울 종로구 북촌로5길 62 월영당,종로구 삼청동,"영업시간&월,화,수,목,금,일 10:00 ~ 22:00&토 10:00 ~ 22:20&공휴일&10:00 ~ 22:00&이용시 주의 사항&10:00~22:00",02-1899-9570,www.instagram.com/wolyeongdang,#커피전문점 #북촌카페 #안동대마라떼 #월영구움과자 #월영당서울 #종로카페 #카카오페이 #제로페이,"메뉴 이름: 아메리카노 가격: 5,500++메뉴 이름: 안동대마라떼 가격: 7,500++메뉴 이름: 쑥떡쉐이크 가격: 7,500++메뉴 이름: 안동ABC착즙쥬스 가격: 7,200++메뉴 이름: 안동생강대추차 가격: 7,000++메뉴 이름: 옛날미숫가루 가격: 6,500++메뉴 이름: 수제감주 가격: 6,000++메뉴 이름: 안동생강맥주 가격: 6,000++메뉴 이름: 안동대마마들렌 가격: 4,300++메뉴 이름: 안동쌀휘낭시에 가격: 4,200++메뉴 이름: 쑥마들렌 가격: 4,000++메뉴 이름: 마늘휘낭시에 가격: 4,000++메뉴 이름: 흑임자마들렌 가격: 4,200++메뉴 이름: 더블초코칩휘낭시에 가격: 3,800++메뉴 이름: 에스프레소 가격: 5,000++메뉴 이름: 카페라떼 가격: 6,000++메뉴 이름: 바닐라빈라떼 가격: 6,500++메뉴 이름: 장미후르츠에이드 가격: 6,800++메뉴 이름: 장미후르츠차 가격: 6,800++메뉴 이름: 레몬키위에이드 가격: 6,800",//t1.kakaocdn.net/thumb/T800x0.q80/?fname=http%3A%2F%2Ft1.kakaocdn.net%2Fmystore%2F9B94984B37FB404794AFF1550DB16B8F,126.9816354,37.57993858
206,종로구,870916614,티퍼런스 서울,4.5,17건,서울 종로구 돈화문로 61,종로구 종로1.2.3.4가동,영업시간&매일 11:00 ~ 22:00&이용시 주의 사항&*거리두기 기간내 ~21:00,02-745-1501,www.teafference.com,#카페 #갤러리카페 #루프탑있는,"메뉴 이름: 티퍼런스 시그니처 퍼플티 가격: 6,000++메뉴 이름: 티퍼런스 퍼플 밀크티 가격: 6,500++메뉴 이름: 티퍼런스 오트라떼 가격: 6,500",//t1.kakaocdn.net/thumb/T800x0.q80/?fname=http%3A%2F%2Ft1.daumcdn.net%2Fplace%2FE8755629B47E4E02B59807E3FC27AC50,126.9909321,37.57391632
207,종로구,306616527,빌리엔젤 종각역점,4.8,5건,서울 종로구 삼봉로 94 1층,종로구 종로1.2.3.4가동,"영업시간&월~금 07:30 ~ 22:30&토,일 09:00 ~ 22:30&공휴일&09:00 ~ 22:30",02-2160-8488,www.billyangel.co.kr,#디저트카페 #제로페이,"메뉴 이름: 아메리카노(hot) 가격: 4,600++메뉴 이름: 카페라떼(hot) 가격: 5,100++메뉴 이름: 바닐라라떼(hot) 가격: 5,600++메뉴 이름: 로얄밀크티(hot) 가격: 5,800++메뉴 이름: 그린티라떼(hot) 가격: 5,600",//t1.kakaocdn.net/thumb/T800x0.q80/?fname=http%3A%2F%2Ft1.daumcdn.net%2Flocalfiy%2FADC7755C20544B869B2AC035EB3CB67B,126.9822344,37.57183811
208,종로구,323328500,투썸플레이스 종로알파빌딩점,4.6,10건,서울 종로구 종로 34 알파빌딩 1층,종로구 종로1.2.3.4가동,"영업시간&월~금 07:00 ~ 23:00&토,일 08:00 ~ 23:00",02-725-2388,www.twosome.co.kr,#커피전문점 #카카오페이,,//t1.kakaocdn.net/thumb/T800x0.q80/?fname=http%3A%2F%2Ft1.daumcdn.net%2Fplace%2FCBB1FB542E0B4B1A9C636F183F94C451,126.9811094,37.56984237
209,종로구,320348303,마당플라워카페,3.3,20건,서울 종로구 수표로28길 33-12,종로구 종로1.2.3.4가동,영업시간&매일 07:30 ~ 23:00,,www.instagram.com/madangflowercafe,#테마카페 #데이트코스 #이색카페 #플라워카페,"메뉴 이름: 아메리카노 가격: 5,000++메뉴 이름: 카페라떼 가격: 7,000++메뉴 이름: 에스프레소 가격: 5,000++메뉴 이름: 바닐라라떼 가격: 8,000++메뉴 이름: 카라멜라떼 가격: 8,000",//t1.kakaocdn.net/thumb/T800x0.q80/?fname=http%3A%2F%2Ft1.daumcdn.net%2Flocalfiy%2FC7FF14B895394BE2982CB56913F34BB1,126.9902096,37.57367669
210,종로구,1633496138,호중정원,5,3건,서울 종로구 삼청로2길 3-8 2층,종로구 삼청동,영업시간&연중무휴,02-723-1968,teapotgarden.co.kr,#카페 #데이트코스 #카카오페이 #제로페이,"메뉴 이름: 아메리카노 가격: 5,500++메뉴 이름: 라떼 가격: 6,000++메뉴 이름: 플랫화이트 가격: 6,000++메뉴 이름: 바닐라라떼 가격: 6,500++메뉴 이름: 홍차 가격: 8,000",//t1.kakaocdn.net/thumb/T800x0.q80/?fname=http%3A%2F%2Ft1.daumcdn.net%2Flocalfiy%2FDC745731517D4B0CB6A4B26647ACD679,126.9811996,37.58122893
211,종로구,909844815,헤이줄리,3.6,9건,서울 종로구 동순라길 108,종로구 종로1.2.3.4가동,"영업시간&월~금 10:30 ~ 19:00&토,일 12:00 ~ 19:30",070-4191-0716,www.instagram.com/cafe_heyjuli,#카페 #감성카페 #루프탑있는 #제로페이,"메뉴 이름: 아메리카노 가격: 4,000++메뉴 이름: 카페라떼 가격: 4,500++메뉴 이름: 카푸치노 가격: 4,500++메뉴 이름: 카페모카 가격: 5,000++메뉴 이름: 블루베리요거트 가격: 6,100",,126.9959116,37.57545087
212,종로구,2061620840,R카페,3.9,16건,서울 종로구 돈화문로11다길 27,종로구 종로1.2.3.4가동,"영업시간&월,화,수,목,일 10:30 ~ 22:00&금,토 10:30 ~ 23:00",02-747-0780,www.instagram.com/signature_r_cafe,#카페 #한옥스타일 #핸드드립전문점,"메뉴 이름: 아메리카노 가격: 5,500++메뉴 이름: 라떼 가격: 6,000++메뉴 이름: 바닐라 라떼 가격: 6,500++메뉴 이름: 밀크티 가격: 7,000++메뉴 이름: 자몽에이드 가격: 7,000",//t1.kakaocdn.net/thumb/T800x0.q80/?fname=http%3A%2F%2Ft1.daumcdn.net%2Fplace%2F08B7AA21034248EBB72677479FF5EEF7,126.9903202,37.57344498
213,종로구,1684219944,이엔갤러리,4.8,12건,서울 종로구 평창길 224,종로구 평창동,영업시간&화~일 12:00 ~ 18:00&휴무일&월요일,02-395-1133,www.engallery.kr,#갤러리카페 #갤러리카페 #모던한 #전망좋은 #핸드드립전문점,,,126.9707852,37.61318267
214,종로구,27587673,시크릿챔버,3.7,10건,서울 종로구 창경궁로 258-12 2층,종로구 혜화동,영업시간&매일 10:30 ~ 24:00&휴무일&연중무휴,02-745-1614,www.secretchamber.kr,#테마카페 #데이트코스 #방탈출카페,,,127.0003566,37.58370581
215,종로구,19615597,투썸플레이스 종로5가역점,1,9건,서울 종로구 종로 201-1 1층,종로구 종로1.2.3.4가동,"영업시간&월~금 07:30 ~ 23:00&토,일 08:00 ~ 23:00",02-763-1644,www.twosome.co.kr,#커피전문점 #카카오페이 #제로페이,,//t1.kakaocdn.net/thumb/T800x0.q80/?fname=http%3A%2F%2Ft1.daumcdn.net%2Fplace%2F76989EB751D249D493D569C985B1DB03,127.0000704,37.5711511
216,종로구,10827907,커피빈 종로관철동점,3.6,11건,"서울 종로구 종로14길 32 지하1층, 1~3층",종로구 종로1.2.3.4가동,영업시간&월~금 07:00 ~ 23:00&토 09:00 ~ 22:00&일 09:00 ~ 22:00&공휴일&09:00 ~ 22:00,02-738-5333,www.coffeebeankorea.com,#커피전문점 #카카오페이,,//t1.kakaocdn.net/thumb/T800x0.q80/?fname=http%3A%2F%2Ft1.daumcdn.net%2Fplace%2FF200675207FC4DBDAF5C47EE293FC71C,126.986727,37.5685735
